- airport: Albuquerque, NM
  latlng: 35.048665,-106.616704
  who:
  - [gross.jonathan, Jonathan Gross]
- airport: Auckland
  latlng: -37.008056,174.791667
  who:
  - [hosking.richard, Richard Hosking]
  - [masoud-ansari.sina, Sina Masoud-Ansari]
  - [mclean.cameron, Cameron McLean]
  - [mcnamara.tim, Tim McNamara]
  - [rugis.john, John Rugis]
- airport: Stockholm
  latlng: 59.651944,17.918611
  who:
  - [vahtras.olav, Olav Vahtras]
  - [valls-guimera.roman, Roman Valls Guimera]
- airport: Atlanta, GA
  latlng: 33.640278,-84.426944
  who:
  - [robinson.rosario, Rosario Robinson]
  - [smith.daniel, Daniel Smith]
- airport: Austin, TX
  latlng: 30.194444,-97.669722
  who:
  - [bennett.n, Nichole Bennett]
  - [fonner.john, John Fonner]
  - [harris.rayna, Rayna Harris]
  - [swaminathan.gayathri, Gayathri Swaminathan]
  - [tarvin.becca, Rebecca Tarvin]
  - [wright.april, April Wright]
- airport: Barcelona
  latlng: 41.296944,2.078333
  who:
  - [ocais.alan, Alan O'Cais]
- airport: Hartford, CT
  latlng: 41.938889,-72.683056
  who:
  - [mckay.sheldon, Sheldon McKay]
  - [murray.david, R. David Murray]
- airport: Birmingham
  latlng: 52.453611,-1.747778
  who:
  - [garcia-gutierrez.leonor, Leonor Garcia-Gutierrez]
  - [lee.kate, Kate Lee]
  - [mount.sarah, Sarah Mount]
- airport: Bangkok
  latlng: 13.6925,100.75
  who:
  - [preeyanon.likit, Likit Preeyanon]
  - [woods.c, Christopher Woods]
- airport: Bangalore
  latlng: 12.949722,77.668056
  who:
  - [svaksha, SVAKSHA -]
- airport: Nashville, TN
  latlng: 36.131312,-86.66945
  who:
  - [burns.scott, Scott Burns]
  - [fonnesbeck.chris, Christopher Fonnesbeck]
- airport: Brisbane
  latlng: -27.384167,153.1175
  who:
  - [alsheikh-hussain.areej, Areej Alsheikh-Hussain]
  - [hames.sam, Sam Hames]
  - [martinez.paula, Paula Martinez]
  - [miotto.amanda, Amanda Miotto]
  - [stanton-cook.mitchell, Mitchell Stanton-Cook]
  - [weaver.belinda, Belinda Weaver]
- airport: Boston, MA
  latlng: 42.364167,-71.005
  who:
  - [alexander.harriet, Harriet Alexander]
  - [freeman.robert, Bob Freeman]
  - [gonzalez.ivan, Ivan Gonzalez]
  - [khetani.radhika, Radhika Khetani]
  - [mistry.meeta, Meeta Mistry]
  - [navarro.francisco, Francisco J. J. Navarro-Brull]
  - [nielsen.daiva, Daiva Nielsen]
  - [piper.mary, Mary Piper]
  - [pollard.tom, Tom Pollard]
  - [riley.janet, Janet Riley]
  - [selik.m, Michael Selik]
  - [shattow.genevieve, Genevieve Shattow]
  - [karger.amir, Amir Karger]
  - [marder.andrew, Andrew Marder]
  - [zahn.ista, Ista Zahn]
- airport: Bristol
  latlng: 51.3825,-2.718889
  who:
  - [metz.jeremy, Jeremy Metz]
- airport: Baltimore, MD
  latlng: 39.175278,-76.668333
  who:
  - [bray.e, Erik Bray]
  - [ely.j, Justin Ely]
  - [viana.a, Alex Viana]
- airport: Paris Charles de Gaulle
  latlng: 49.012778,2.55
  who:
  - [varoquaux.n, Nelle Varoquaux]
- airport: Christchurch
  latlng: -43.489167,172.532222
  who:
  - [bae.sung, Sung Eun Bae]
- airport: Charlottesville, VA
  latlng: 38.139643,-78.452342
  who:
  - [alonzi.pete, Pete Alonzi]
  - [bonnie.jessica, Jessica Bonnie]
  - [fu.zhuo, zhuo fu]
  - [koeppel.alexander, Alex Koeppel]
  - [lake.sherry, Sherry Lake]
  - [turner.s, Stephen Turner]
- airport: Charleston, SC
  latlng: 32.898611,-80.040278
  who:
  - [mcglinn.d, Dan McGlinn]
- airport: Cleveland, OH
  latlng: 41.411667,-81.849722
  who:
  - [wijeratne.asela, Asela  Wijeratne]
- airport: Urbana-Champaign, IL
  latlng: 40.039167,-88.278056
  who:
  - [davis.neal, Neal Davis]
  - [lebauer.david, David LeBauer]
- airport: Copenhagen Kastrup
  latlng: 55.617778,12.655833
  who:
  - [chisholm.chelsea, Chelsea Chisholm]
  - [hjelm.johan, Johan Hjelm]
- airport: Cape Town
  latlng: -33.964722,18.601667
  who:
  - [van-der-walt.anelda, Anelda van der Walt]
  - [vanderwalt.s, Stefan van der Walt]
- airport: Ronald Reagan Washington, DC
  latlng: 38.851944,-77.0375
  who:
  - [ahmadia.a, Aron Ahmadia]
  - [guyer.jonathan, Jonathan Guyer]
  - [miles.brian, Brian Miles]
  - [munoz.ian, Ian Munoz]
  - [smith.j, Joshua Smith]
  - [smorul.mike, Mike Smorul]
- airport: Denver, CO
  latlng: 39.858333,-104.666944
  who:
  - [dickenson.matt, Matt Dickenson]
  - [perignon.mariela, Mariela Perignon]
  - [robinson.natalie, Natalie Robinson]
  - [wasser.leah, Leah Wasser]
  - [johnson.andrew, Andrew Johnson]
- airport: Dallas-Fort Worth, TX
  latlng: 32.896389,-97.0375
  who:
  - [corless.john, John Corless]
  - [hertweck.kate, Kate Hertweck]
- airport: Dundee
  latlng: 56.4525,-3.025833
  who:
  - [martin.david, David Martin]
- airport: Dresden
  latlng: 51.1325,13.766944
  who:
  - [henry.ian, Ian Henry]
  - [lee.luke, Luke Lee]
  - [steinbach.peter, Peter Steinbach]
- airport: Des Moines, IA
  latlng: 41.533889,-93.6625
  who:
  - [chuang-howe.a, Adina Howe]
  - [yang.fan, Fan Yang]
- airport: Detroit, MI
  latlng: 42.212222,-83.353333
  who:
  - [anderson.c, Carlos Anderson]
  - [berry.michelle, Michelle Berry]
  - [charbonneau.amanda, Amanda Charbonneau]
  - [duffy.meghan, Meghan Duffy]
  - [gates.chris, Chris Gates]
  - [guo.jiarong, Jiarong Guo]
  - [irber.luiz, Luiz Irber]
  - [johnson.ben, Ben Johnson]
  - [schmidt.marian, Marian Schmidt]
  - [sheneman.leigh, Leigh Sheneman]
  - [smith.by, Byron Smith]
- airport: Dublin
  latlng: 53.421111,-6.27
  who:
  - [stack.padraic, Padraic Stack]
- airport: Dusseldorf
  latlng: 51.289444,6.766667
  who:
  - [zito.t, Tiziano Zito]
- airport: Edinburgh
  latlng: 55.95,-3.3725
  who:
  - [antonioletti.mario, Mario Antonioletti]
  - [belikov.evgenij, Evgenij Belikov]
  - [chue-hong.n, Neil Chue Hong]
  - [farsarakis.emmanouil, Emmanouil Farsarakis]
  - [jackson.m, Mike Jackson]
  - [jones.martin, Martin Jones]
  - [peru.giacomo, Giacomo Peru]
  - [pritchard.leighton, Leighton Pritchard]
  - [thomson.samuel, Sam Thomson]
- airport: Eugene, OR
  latlng: 38.175662,-85.736923
  who:
  - [levernier.jacob, Jacob Levernier]
- airport: Newark, NJ
  latlng: 40.692222,-74.168611
  who:
  - [hannah.nicholas, Nic Hannah]
  - [jonsson.bf, Bror Fredrik Jonsson]
  - [till.robert, Robert Till]
- airport: Exeter
  latlng: 50.734444,-3.413889
  who:
  - [allen.james, James Allen]
- airport: Flagstaff, AZ
  latlng: 35.13778,-111.67167
  who:
  - [caporaso.greg, Greg Caporaso]
  - [perry.adam, Adam Perry]
- airport: Frankfurt
  latlng: 50.026389,8.543056
  who:
  - [coelho.luis, Luis Pedro Coelho]
  - [forstner.konrad, "Konrad F\xF6rstner"]
  - [lies.philipp, Philipp Lies]
  - [sharan.malvika, Malvika Sharan]
- airport: Spokane, WA
  latlng: 47.619722,-117.533611
  who:
  - [woo.kara, Kara Woo]
- airport: Washington Dulles, DC
  latlng: 38.944444,-77.455556
  who:
  - [jedrzejewski-szmek.zbigniew, "Zbigniew J\u0119drzejewski-Szmek"]
  - [rowell.bill, William Rowell]
  - [thomas.adam, Adam Thomas]
- airport: Houston, TX
  latlng: 29.980278,-95.339722
  who:
  - [ramalingam.saravanan, Saravanan Ramalingam]
  - [talafuse.scott, Scott Talafuse]
  - [wilkerson.chandler, Chandler Wilkerson]
- airport: Indianapolis, IN
  latlng: 39.717222,-86.294167
  who:
  - [hansen.m, Michael Hansen]
  - [rio.david, David Rio]
  - [shelton.j, Jeffrey Shelton]
  - [standage.daniel, Daniel Standage]
- airport: Ithaca, NY
  latlng: 42.491,-76.459
  who:
  - [davenport.e, Emily Davenport]
- airport: New York JFK, NY
  latlng: 40.639722,-73.778889
  who:
  - [aiello-lammens.matthew, Matthew Aiello-Lammens]
  - [borrelli.jonathan, Jonathan Borrelli]
  - [ruttley.m, Matthew Ruttley]
  - [shelton.jennifer, Jennifer Shelton]
  - [shih.yu-ching, Yu-Ching Shih]
  - [smith.g, Genevieve Smith]
  - [williams.jason, Jason Williams]
- airport: Krakow
  latlng: 50.0775,19.784722
  who:
  - [banaszkiewicz.piotr, Piotr Banaszkiewicz]
  - [czuchry.maciej, Maciej Czuchry]
  - [lach.paulina, Paulina Lach]
  - [noga.klemens, Klemens Noga]
  - [tarkowski.leszek, Leszek Tarkowski]
- airport: Lansing, MI
  latlng: 42.778611,-84.587222
  who:
  - [bahlai.christie, Christie Bahlai]
  - [canino-koning.r, Rosangela Canino-Koning]
  - [dolson.emily, Emily Dolson]
  - [enbody.r, Richard Enbody]
  - [garoutte.aaron, Aaron Garoutte]
  - [nahum.josh, Joshua Nahum]
  - [pue.s, Sean Pue]
  - [schossau.j, Jorden Schossau]
  - [teal.t, Tracy Teal]
- airport: Los Angeles, CA
  latlng: 33.9415889,-118.40853
  who:
  - [wilber.mark, Mark Wilber]
- airport: Leeds
  latlng: 53.865833,-1.660556
  who:
  - [oleary.aaron, Aaron O'Leary]
  - [walker.andrew, Andrew Walker]
  - [mound.je, Jon E Mound]
- airport: London City
  latlng: 51.505,0.054167
  who:
  - [figueira.l, Luis Figueira]
- airport: New York La Guardia, NY
  latlng: 40.777222,-73.8725
  who:
  - [ainsley.joshua, Joshua Ainsley]
  - [avestruz.camille, Camille Avestruz]
  - [bayer.m, Mike Bayer]
  - [camins-esakov.jared, Jared Camins-Esakov]
  - [cerino.t, Timothy Cerino]
  - [langmore.i, Ian Langmore]
  - [lightman.matthew, Matthew Lightman]
  - [pell.j, Jason Pell]
- airport: London Heathrow
  latlng: 51.4775,-0.461389
  who:
  - [beagrie.robert, Rob Beagrie]
  - [bernabeu.miguel, Miguel Bernabeu]
  - [cannam.c, Chris Cannam]
  - [fowler.philip, Philip Fowler]
  - [gatto.laurent, Laurent Gatto]
  - [graham.laura, Laura Jane Jane Graham]
  - [henderson.donna, Donna Henderson]
  - [hetherington.james, James Hetherington]
  - [inupakutika.devasena, Devasena Inupakutika]
  - [jacobs.christian, Christian Jacobs]
  - [kim.jan, Jan Kim]
  - [leem.jinwoo, Jinwoo Leem]
  - [macindoe.gary, Gary Macindoe]
  - [maclean.dan, Dan MacLean]
  - [nielsen.jens, Jens Hedegaard Nielsen]
  - [perez-suarez.david, David Perez-Suarez]
  - [pfenninger.s, Stefan Pfenninger]
  - [rathgeber.florian, Florian Rathgeber]
  - [vera.b, Bogdan Vera]
  - [waugh.b, Ben Waugh]
- airport: Luton
  latlng: 51.874444,-0.368333
  who:
  - [stillwell.mark, Mark Stillwell]
- airport: Lyon Saint Exupery
  latlng: 45.726111,5.090833
  who:
  - [emonet.remi, "R\xE9mi Emonet"]
- airport: Madrid
  latlng: 40.472222,-3.560833
  who:
  - [garcia-algarra.javier, "Javier Garc\xEDa-Algarra"]
  - [leyder.jean-christophe, JC Leyder]
- airport: Manchester
  latlng: 53.353611,-2.274722
  who:
  - [harrison.anthony, Anthony Harrison]
  - [jones.d, David Jones]
  - [nenadic.aleksandra, Aleksandra Nenadic]
  - [pawlik.a, Aleksandra Pawlik]
  - [sufi.s, Shoaib Sufi]
- airport: Kansas City, KS
  latlng: 39.2975,-94.713889
  who:
  - [hamm.christopher, Christopher Hamm]
  - [mctavish.ej, Emily Jane McTavish]
- airport: Harrisburg, PA
  latlng: 40.193333,-76.763333
  who:
  - [jones.dm, David Jones]
- airport: Chicago Midway, IL
  latlng: 41.785833,-87.752222
  who:
  - [blischak.j, John Blischak]
  - [brown.kyler, Kyler Brown]
  - [desinghu.balamurugan, Balamurugan Desinghu]
  - [trimble.will, Will Trimble]
- airport: Melbourne
  latlng: -37.673333,144.843333
  who:
  - [barneche.diego, Diego Barneche Rosado]
  - [barr.ewan, Ewan Barr]
  - [coudrat.thomas, Thomas Coudrat]
  - [crouch.nicholas, Nicholas Crouch]
  - [dashnow.harriet, Harriet Dashnow]
  - [dimmock.matt, Matthew Dimmock]
  - [doyle.kimberly, Kim Doyle]
  - [garcia.julian, Julian Garcia]
  - [griffin.pip, Philippa Griffin]
  - [irving.d, Damien Irving]
  - [kiral-kornek.isabell, Isabell Kiral-Kornek]
  - [mcdonald.daniel, Daniel McDonald]
  - [michnowicz.s, Simon Michnowicz]
  - [nunez-iglesias.juan, Juan Nunez-Iglesias]
  - [paulo.martin, Martin Paulo]
  - [rice.timothy, Timothy Rice]
  - [ritchie.scott, Scott Ritchie]
  - [sloggett.clare, Clare Sloggett]
  - [sumner.mike, Michael  Sumner]
  - [thomas.ian, Ian Thomas]
  - [tweedie.fiona, Fiona Tweedie]
  - [walsh.alistair, Alistair Walsh]
  - [winton.jared, Jared Winton]
- airport: Manchester, New Hampshire
  latlng: 42.92786,-71.43844
  who:
  - [hocking.daniel, Daniel Hocking]
- airport: Madison, WI
  latlng: 43.139722,-89.3375
  who:
  - [broman.karl, Karl Broman]
  - [koch.christina, Christina Koch]
  - [michael.lauren, Lauren Michael]
  - [scopatz.a, Anthony Scopatz]
  - [stevens.sarah, Sarah Stevens]
  - [supp.s, Sarah Supp]
  - [wilson.p, Paul Wilson]
- airport: Minneapolis St Paul, MN
  latlng: 44.880278,-93.216667
  who:
  - [mansour.tamer, Tamer Mansour]
  - [williams.ryan, Ryan Williams]
- airport: New Orleans, LA
  latlng: 29.993333,-90.257778
  who:
  - [nakhoul.hani, Hani Nakhoul]
  - [ro.j, Joon Ro]
- airport: Munich
  latlng: 48.353611,11.785833
  who:
  - [koenig.steven, Steven Koenig]
- airport: Newcastle
  latlng: 55.0375,-1.691667
  who:
  - [mcgough.s, Steve McGough]
  - [palamartchouk.kirill, Kirill Palamartchouk]
  - [wake.leanne, Leanne Wake]
- airport: Norwich
  latlng: 52.675833,1.282778
  who:
  - [etherington.graham, Graham Etherington]
- airport: Oakland, CA
  latlng: 37.721111,-122.220556
  who:
  - [bostroem.a, Azalee Bostroem]
  - [cholia.s, Shreyas Cholia]
  - [davis.m, Matt Davis]
  - [hamrick.jessica, Jessica Hanrivk]
  - [holdgraf.c, Chris Holdgraf]
  - [ivanov.p, Paul Ivanov]
  - [marwaha.kunal, Kunal Marwaha]
  - [oxberry.g, Geoff Oxberry]
  - [perez.f, Fernando Perez]
  - [terry.m, Matt Terry]
  - [winston.donald, Donny Winston]
- airport: Oklahoma City
  latlng: 35.393056,-97.600556
  who:
  - [cox.logan, Logan Cox]
  - [duckles.jonah, Jonah Duckles]
  - [shambaugh.brent, Brent Shambaugh]
- airport: Chicago O'Hare, IL
  latlng: 41.979444,-87.904444
  who:
  - [eddelbuettel.dirk, Dirk Eddelbuettel]
- airport: Paris Orly
  latlng: 48.725278,2.359444
  who:
  - [gramfort.a, Alexandre Gramfort]
  - [hinsen.k, Konrad Hinsen]
- airport: Oslo Gardermoen
  latlng: 60.193889,11.100278
  who:
  - [fontenelle.hugues, Hugues Fontenelle]
  - [lagesen.k, Karin Lagesen]
  - [nederbragt.l, Lex Nederbragt]
- airport: Portland, OR
  latlng: 45.588611,-122.5975
  who:
  - [boyle.amy, Amy Boyle]
  - [chamberlain.s, Scott Chamberlain]
- airport: Perth
  latlng: -31.940278,115.966944
  who:
  - [bayer.p, Philipp Bayer]
  - [demichelis.raffaella, Raffaella Demichelis]
  - [rohl.andrew, Andrew Rohl]
- airport: Philadelphia, PA
  latlng: 39.871944,-75.241111
  who:
  - [bauer.dana, Dana Bauer]
  - [olson.r, Randy Olson]
  - [sane.maneesha, Maneesha Sane]
- airport: Pittsburgh, PA
  latlng: 40.491389,-80.232778
  who:
  - [adelman.joshua, Joshua Adelman]
- airport: Providence, RI
  latlng: 41.723889,-71.428056
  who:
  - [hollister.jeff, Jeff Hollister]
- airport: Raleigh Durham, NC
  latlng: 35.8775,-78.787222
  who:
  - [boss.darren, Darren Boss]
  - [chan.cliburn, Cliburn Chan]
  - [cranston.k, Karen Cranston]
  - [pearson.john, John Pearson]
  - [pormann.john, John Pormann]
  - [whitlock.a, Amanda Whitlock]
- airport: Richmond, VA
  latlng: 37.505,-77.319444
  who:
  - [friedline.chris, Chris Friedline]
- airport: San Diego, SC
  latlng: 32.733333,-117.189444
  who:
  - [lasher.c, Chris Lasher]
  - [zonca.andrea, Andrea Zonca]
- airport: San Luis Obispo, CA
  latlng: 35.236944,-120.641944
  who:
  - [frederic.jonathan, Jonathan Frederic]
- airport: State College, PA
  latlng: 40.855881,-77.843841
  who:
  - [taber-thomas.bradley, Bradley Taber-Thomas]
- airport: Louisville, KY
  latlng: 38.175662,-85.736923
  who:
  - [lant.jeremiah, Jeremiah Lant]
- airport: Seattle, WA
  latlng: 47.448889,-122.309167
  who:
  - [alleen-willems.russell, Russell Alleen Willems]
  - [clayton.sophie, Sophie Clayton]
  - [erlich.aaron, Aaron Erlich]
  - [fish.jordan, Jordan Fish]
  - [gan.emilia, Emilia Gan]
  - [guy.t, Tommy Guy]
  - [hinchliff.cody, Cody Hinchliff]
  - [king.wt, W. Trevor King]
  - [lin.johnny, Johnny Lin]
  - [marwick.ben, Ben Marwick]
  - [mckinley.maria, Maria McKinley]
  - [richie-halford.adam, Adam Richie-Halford]
  - [rokem.a, Ariel Rokem]
  - [sarahan.michael, Michael Sarahan]
  - [tatman.rachael, Rachael  Tatman]
  - [vanderplas.jacob, Jacob Vanderplas]
  - [vonderlinden.jens, Jens von der Linden]
  - [white.samuel, Samuel White]
  - [yang.hsi-kai, Hsi-Kai Yang]
- airport: San Francisco, CA
  latlng: 37.618889,-122.374722
  who:
  - [blakk.lukas, Lukas Blakk]
  - [hart.t, Edmund Hart]
  - [huff.k, Katy Huff]
  - [imamoglu.fatma, Fatma Imamoglu]
  - [kitzes.j, Justin Kitzes]
  - [mckellar.j, Jessica McKellar]
  - [morris.b, Ben Morris]
  - [ram.k, Karthik Ram]
  - [sampath.ramesh, Ramesh Sampath]
  - [slaybaugh.rachel, Rachel Slaybaugh]
  - [turek.daniel, Daniel Turek]
  - [ushizima.daniela, Daniela Ushizima]
  - [vaidyanathan.ramnath, Ramnath Vaidyanathan]
  - [zhang.qp, QINGPENG ZHANG]
- airport: Singapore
  latlng: 1.355556,103.987222
  who:
  - [miller.dana, Dana Miller]
- airport: San Jose, CA
  latlng: 37.361667,-121.928889
  who:
  - [haddock.s, Steve Haddock]
  - [hodge.amy, Amy Hodge]
- airport: Salt Lake City, UT
  latlng: 40.788333,-111.9775
  who:
  - [schilling.martin, Martin Schilling]
  - [hart.gus, Gus Hart]
  - [nguyen.andrew, Andrew Nguyen]
  - [rosenbrock.conrad, Conrad Rosenbrock]
- airport: Sacramento, CA
  latlng: 38.695278,-121.590556
  who:
  - [boettiger.carl, Carl Boettiger]
  - [brown.ct, C. Titus Brown]
  - [crusoe.michael, Michael Crusoe]
  - [moore.jason, Jason Moore]
  - [ross.noam, Noam Ross]
  - [white.easton, Easton  White]
- airport: Southampton
  latlng: 50.95,-1.356667
  who:
  - [crouch.s, Stephen Crouch]
  - [hawke.ian, Ian Hawke]
  - [tomsett.richard, Richard Tomsett]
  - [wilson.r, Robin Wilson]
- airport: St. Louis, MO
  latlng: 38.7475,-90.359722
  who:
  - [gibson.molly, Molly Gibson]
  - [kerr.j, Jessica Kerr]
  - [ory.j, Jeramia Ory]
  - [serra.neem, Neem Serra]
- airport: Stansted
  latlng: 51.885,0.235
  who:
  - [davey.rob, Robert Davey]
  - [el-moghraby.dureid, Dureid El-Moghraby]
- airport: Stuttgart
  latlng: 48.689722,9.221944
  who:
  - [bast.radovan, Radovan Bast]
- airport: Sydney
  latlng: -33.946111,151.177222
  who:
  - [cornwell.will, Will Cornwell]
  - [falster.daniel, Daniel Falster]
  - [fitzjohn.rich, Rich FitzJohn]
  - [held.fabian, Fabian Held]
  - [madin.j, Joshua Madin]
  - [warren.dan, Dan Warren]
- airport: Syracuse, NY
  latlng: 43.111111,-76.106111
  who:
  - [mudrak.erika, Erika Mudrak]
- airport: Tel Aviv
  latlng: 32.009444,34.876667
  who:
  - [saraf.aur, Aur Saraf]
- airport: Trieste
  latlng: 45.827778,13.466389
  who:
  - [cozzini.s, Stefano Cozzini]
- airport: Tucson, AZ
  latlng: 32.116111,-110.941389
  who:
  - [srinivasan.karthik, Karthik  Srinivasan]
  - [strootman.jonathan, Jonathan Strootman]
  - [zimmerman.naupaka, Naupaka Zimmerman]
- airport: Knoxville, TN
  latlng: 35.81,-84.0
  who:
  - [staton.margaret, Meg Staton]
- airport: Edmonton
  latlng: 53.309722,-113.579722
  who:
  - [macdonell.cam, Cam Macdonell]
  - [varga.vicky, Vicky Varga]
- airport: Halifax
  latlng: 44.880833,-63.508611
  who:
  - [dickson.r, Ross Dickson]
- airport: Ottawa
  latlng: 45.3225,-75.669167
  who:
  - [mcgoveran.catherine, Catherine McGoveran]
  - [moir.kim, Kim Moir]
  - [simpkin.sarah, Sarah Simpkin]
- airport: Quebec City
  latlng: 46.788333,-71.3975
  who:
  - [lafleur.olivier, Olivier Lafleur]
- airport: Montreal
  latlng: 45.468056,-73.741389
  who:
  - [corvellec.marianne, Marianne Corvellec]
  - [devenyi.gabriel, Gabriel A. Devenyi]
  - [ghamsari-esfahani.mahtab, Mahtab Ghamsari-Esfahani]
  - [gosset.john, John Gosset]
  - [haine.denis, Denis Haine]
  - [kozlov.igor, Igor Kozlov]
  - [laforest-lapointe.isabelle, Isabelle Laforest-Lapointe]
  - [poisot.t, Timothee Poisot]
  - [provencher.francoise, Francoise Provencher]
- airport: Vancouver
  latlng: 49.195,-123.181944
  who:
  - [bryan.j, Jennifer Bryan]
  - [chung.kathy, Kathy Chung]
  - [gustavsen.j, Julia Gustavsen]
  - [huang.daisie, Daisie Huang]
  - [kirkpatrick.ted, Ted Kirkpatrick]
  - [konrad.b, Bernhard Konrad]
  - [latornell.d, Doug Latornell]
  - [mills.b, Bill Mills]
  - [mitchell.i, Ian Mitchell]
  - [ramos-musalem.ana-karina, Karina Ramos Musalem]
  - [soontiens.nancy, Nancy Soontiens]
  - [timbers.tiffany, Tiffany Timbers]
  - [williams.l, Lynne Williams]
- airport: London, Ontario
  latlng: 43.035556,-81.153889
  who:
  - [barmby.pauline, Pauline Barmby]
  - [whitehead.tyson, Tyson Whitehead]
- airport: Victoria
  latlng: 48.646944,-123.425833
  who:
  - [aranda.j, Jorge Aranda]
  - [robinson.james, James Robinson]
  - [teucher.andrew, Andy Teucher]
- airport: Toronto
  latlng: 43.677222,-79.630556
  who:
  - [anghel.catalina, Catalina Anghel]
  - [aruliah.d, Dhavide Aruliah]
  - [bekolay.trevor, Trevor Bekolay]
  - [brown.amy, Amy Brown]
  - [collins.arliss, Arliss Collins]
  - [daigle.remi, Remi Daigle]
  - [durant.martin, Martin Durant]
  - [dursi.j, Jonathan Dursi]
  - [fei.xu, Xu Fei]
  - [gibling.heather, Heather Gibling]
  - [gray.jeremy, Jeremy Gray]
  - [guignard.thomas, Thomas Guignard]
  - [johnston.luke, Luke Johnston]
  - [obrien.brenna, Brenna O'Brien]
  - [taschuk.morgan, Morgan Taschuk]
  - [wilson.g, Greg Wilson]
  - [wright.thomas, Tom Wright]
- airport: Zhongchuan
  latlng: 36.516667,103.621667
  who:
  - [luo.yuxi, Yuxi Luo]
- airport: Masset, BC
  latlng: 54.027972,-132.126291
  who:
  - [hiebert.james, James Hiebert]
- airport: Phoenix, AZ
  latlng: 33.434167,-112.008056
  who:
  - [dotson.david, David Dotson]
  - [schwartz.rachel, Rachel Schwartz]
  - [chase.john, John Chase]
- airport: Dunedin
  latlng: -45.928056,170.198333
  who:
  - [black.mik, Mik Black]
  - [boocock.james, James Boocock]
  - [kelly.tom, Tom Kelly]
- airport: Canberra
  latlng: -35.308333,149.193889
  who:
  - [simpson.jack, Jack Simpson]
  - [small.luc, Luc Small]
- airport: Salvador de Bahia
  latlng: -12.910833,-38.330833
  who:
  - [fernandes.filipe, Filipe Fernandes]
- airport: Lincoln, NE
  latlng: 40.850833,-96.759167
  who:
  - [harstad.emelie, Emelie Harstad]
  - [herr.joshua, Josh Herr]
- airport: Honolulu, HI
  latlng: 21.315833,-157.926667
  who:
  - [belcaid.mahdi, Mahdi Belcaid]
  - [cleveland.sean, Sean Cleveland]
- airport: Fort Wayne International Airport
  latlng: 40.97833,-85.195
  who:
  - [mehta.prateek, Prateek Mehta]
- airport: El Paso International Airport
  latlng: 31.807222,-106.3775
  who:
  - [holtzman.jon, Jon Holtzman]
- airport: Ann Arbor, MI
  latlng: 42.2229996,-83.7455978
  who:
  - [schloss.pat, Pat Schloss]
- airport: Bangor, ME
  latlng: 44.8073997,-68.8281021
  who:
  - [mcclatchy.susan, Sue McClatchy]
  - [raghupathy.narayanan, Narayanan Raghupathy]
- airport: Cincinnati, KY
  latlng: 39.0488014,-84.6678009
  who:
  - [flight.r, Robert Flight]
- airport: James M. Cox Dayton, OH
  latlng: 39.902401,-84.2193985
  who:
  - [devlin.catherine, Catherine Devlin]
- airport: Gainesville, TX
  latlng: 33.651389,-97.196944
  who:
  - [white.e, Ethan White]
- airport: Gainesville, FL
  latlng: 29.69,-82.271667
  who:
  - [collins.matthew, Matthew Collins]
  - [michonneau.francois, francois michonneau]
- airport: Sao Paulo Guarulhos
  latlng: -23.435556,-46.473056
  who:
  - [silva.raniere, Raniere Silva]
- airport: Greenville Spartanburg, SC
  latlng: 34.8956985,-82.2189026
  who:
  - [srinath.ashwin, Ashwin Trikuta Srinath]
  - [carbajales.patricia.2, Patricia Carbajales-Dale]
- airport: Roanoke Blacksburg, VA
  latlng: 37.3255005,-79.9754028
  who:
  - [chen.daniel, Daniel Chen]
- airport: Fayetteville Springdale, AR
  latlng: 36.2818985,-94.3068008
  who:
  - [fournier.auriel, Auriel Fournier]
- airport: Moncton
  latlng: 46.1122017,-64.6785965
  who:
  - [collings.ruth, Ruth Collings]
- airport: Billy Bishop Toronto
  latlng: 43.6274986,-79.3962021
  who:
  - [cabunoc.abigail, Abigail Cabunoc Mayes]
