- country: Canada
  enddate: 2011-11-08
  humandate: Nov 7-8, 2011
  instructor: [Jonathan Dursi, Tommy Guy, Katy Huff, Dominique Vuvan]
  latlng: 43.661476,-79.395189
  layout: bootcamp
  registration: open
  slug: 2011-11-07-toronto
  startdate: 2011-11-07
  url: http://swcarpentry.github.io/2011-11-07-toronto/
  user: swcarpentry
  venue: University of Toronto
- country: United-States
  enddate: 2012-01-19
  humandate: Jan 18-19, 2012
  instructor: [Greg Wilson]
  latlng: 39.332604,-76.62319
  layout: bootcamp
  registration: open
  slug: 2012-01-18-stsci
  startdate: 2012-01-18
  url: http://swcarpentry.github.io/2012-01-18-stsci/
  user: swcarpentry
  venue: Space Telescope Science Institute
- country: Italy
  enddate: 2012-03-02
  humandate: Feb 20 - March 2, 2012
  instructor: [Stephen Crouch, Tommy Guy, Katy Huff]
  latlng: 45.703255,13.718013
  layout: bootcamp
  registration: open
  slug: 2012-02-20-itcp
  startdate: 2012-02-20
  url: http://swcarpentry.github.io/2012-02-20-itcp/
  user: swcarpentry
  venue: International Centre for Theoretical Physics
- address: Bahen Centre for Information Technology, 40 St. George Street, Toronto,
    ON
  country: Canada
  enddate: 2012-02-24
  humandate: February 23-24, 2012
  instructor: [Matt Davis, Jonathan Dursi, Mike Fletcher, Greg Wilson]
  latlng: 43.661476,-79.395189
  layout: bootcamp
  registration: open
  slug: 2012-02-23-toronto
  startdate: 2012-02-23
  url: http://swcarpentry.github.io/2012-02-23-toronto/
  user: swcarpentry
  venue: University of Toronto
- country: United-States
  enddate: 2012-03-08
  humandate: March 7-8, 2012
  humantime: 9:00 am - 5:00 pm
  instructor: [Greg Wilson]
  latlng: 39.1663815,-86.526621
  layout: bootcamp
  registration: open
  slug: 2012-03-07-indiana
  startdate: 2012-03-07
  url: http://swcarpentry.github.io/2012-03-07-indiana/
  user: swcarpentry
  venue: Indiana University
- country: United-States
  enddate: 2012-03-27
  humandate: March 26-27, 2012
  humantime: 9:00 am - 5:00 pm
  instructor: [Steve Haddock, Greg Wilson]
  latlng: 36.802151,-121.788163
  layout: bootcamp
  registration: open
  slug: 2012-03-26-mbari
  startdate: 2012-03-26
  url: http://swcarpentry.github.io/2012-03-26-mbari/
  user: swcarpentry
  venue: Monterey Bay Aquarium Research Institute
- address: Conference Room 238, Oakland Scientific Facility (OSF), 415 20th Street
    ("Thomas L Berkley Way") at Franklin Street, Oakland, CA
  country: United-States
  enddate: 2012-03-29
  humandate: March 28-29, 2012
  instructor: [Michelle Levesque, Greg Wilson]
  latlng: 37.8083814,-122.2675787
  layout: bootcamp
  registration: open
  slug: 2012-03-28-nersc
  startdate: 2012-03-28
  url: http://swcarpentry.github.io/2012-03-28-nersc/
  user: swcarpentry
  venue: NERSC
- country: United-States
  enddate: 2012-04-03
  humandate: April 2-3, 2012
  humantime: 9:00 am - 5:00 pm
  instructor: [Milad Fatenejad, Katy Huff, Anthony Scopatz, Joshua Smith]
  latlng: 41.7901128,-87.6007318
  layout: bootcamp
  registration: open
  slug: 2012-04-02-chicago
  startdate: 2012-04-02
  url: http://swcarpentry.github.io/2012-04-02-chicago/
  user: swcarpentry
  venue: University of Chicago
- address: Room 314, Biology and Natural Resources Building, Utah State University,
    5305 Old Main Hill, Logan, UT
  country: United-States
  enddate: 2012-04-15
  humandate: April 14-15, 2012
  humantime: 9:00 am - 4:30 pm
  instructor: [Curtis Dyreson, Jason Pell, Greg Wilson]
  latlng: 41.7449488,-111.8042944
  layout: bootcamp
  registration: open
  slug: 2012-04-14-utahstate
  startdate: 2012-04-14
  url: http://swcarpentry.github.io/2012-04-14-utahstate/
  user: swcarpentry
  venue: Utah State University
- country: United-Kingdom
  enddate: 2012-05-01
  humandate: April 30 - May 1, 2012
  humantime: 9:00 am - 4:30 pm
  instructor: [Chris Cannam, Greg Wilson]
  latlng: 51.5598815,-0.1334579
  layout: bootcamp
  registration: open
  slug: 2012-04-30-ucl
  startdate: 2012-04-30
  url: http://swcarpentry.github.io/2012-04-30-ucl/
  user: swcarpentry
  venue: University College London
- country: United-States
  enddate: 2012-05-08
  humandate: May 7-8, 2012
  instructor: [C. Titus Brown, Greg Wilson]
  latlng: 42.7272884,-84.482106
  layout: bootcamp
  registration: open
  slug: 2012-05-07-michiganstate
  startdate: 2012-05-07
  url: http://swcarpentry.github.io/2012-05-07-michiganstate/
  user: swcarpentry
  venue: Michigan State University
- contact: swc2012@ncl.ac.uk
  country: United-Kingdom
  enddate: 2012-05-15
  humandate: May 14-15, 2012
  humantime: 9:00 am - 5:00 pm
  instructor: [Chris Cannam, Neil Chue Hong, Stephen Crouch, Mike Jackson, Steve McGough]
  latlng: 54.980095,-1.6146142
  layout: bootcamp
  registration: open
  slug: 2012-05-14-newcastle
  startdate: 2012-05-14
  url: http://swcarpentry.github.io/2012-05-14-newcastle/
  user: swcarpentry
  venue: Newcastle University
- address: Computing Sciences Centre (CSC) 1-59, University of Alberta, Edmonton,
    AB
  country: Canada
  enddate: 2012-05-17
  humandate: May 16-17, 2012
  instructor: [Rosangela Canino-Koning, Greg Wilson]
  latlng: 53.5234543,-113.5259951
  layout: bootcamp
  registration: open
  slug: 2012-05-16-alberta
  startdate: 2012-05-16
  url: http://swcarpentry.github.io/2012-05-16-alberta/
  user: swcarpentry
  venue: University of Alberta
- address: Room DMP 201, 6245 Agronomy Road
  country: Canada
  enddate: 2012-05-23
  humandate: May 22-23, 2012
  instructor: [Adina Chuang Howe, Greg Wilson]
  latlng: 49.2617149,-123.2534305
  layout: bootcamp
  registration: open
  slug: 2012-05-22-ubc
  startdate: 2012-05-22
  url: http://swcarpentry.github.io/2012-05-22-ubc/
  user: swcarpentry
  venue: University of British Columbia
- address: Room 475, Bloomberg Center for Physics &amp; Astronomy
  country: United-States
  enddate: 2012-06-19
  humandate: June 18-19, 2012
  humantime: 9:00 am - 4:30 pm
  instructor: [Matt Davis, Joshua Smith, Sasha Wood]
  latlng: 39.3275798,-76.6207579
  layout: bootcamp
  registration: open
  slug: 2012-06-18-jhu
  startdate: 2012-06-18
  url: http://swcarpentry.github.io/2012-06-18-jhu/
  user: swcarpentry
  venue: Johns Hopkins University
- address: Place d'Italie
  country: France
  enddate: 2012-06-29
  humandate: June 28-29, 2012
  instructor: [Feth Arezki, Christophe Combelles, Alexandre Gramfort, Konrad Hinsen,
    Nelle Varoquaux]
  latlng: 48.831673,2.355623
  layout: bootcamp
  registration: open
  slug: 2012-06-28-inria
  startdate: 2012-06-28
  url: http://swcarpentry.github.io/2012-06-28-inria/
  user: swcarpentry
  venue: INRIA Paris
- address: Room 32-141, CSAIL, MIT, 32 Vassar Street, Cambridge, MA
  country: United-States
  enddate: 2012-07-10
  humandate: July 9-10, 2012
  humantime: 9:00 am - 4:30 pm
  instructor: [Jessica McKellar, Greg Wilson]
  latlng: 42.3591326,-71.093201
  layout: bootcamp
  registration: open
  slug: 2012-07-09-mit
  startdate: 2012-07-09
  url: http://swcarpentry.github.io/2012-07-09-mit/
  user: swcarpentry
  venue: MIT
- address: Davis Centre DC 1568, University of Waterloo, 200 University Avenue West,
    Waterloo, ON
  country: Canada
  enddate: 2012-07-13
  eventbrite: 3558725243
  humandate: July 12-13, 2012
  humantime: 9:00 am - 4:30 pm
  instructor: [Dhavide Aruliah, Greg Wilson]
  latlng: 43.4701302,-80.5357712
  layout: bootcamp
  registration: open
  slug: 2012-07-12-waterloo
  startdate: 2012-07-12
  url: http://swcarpentry.github.io/2012-07-12-waterloo/
  user: swcarpentry
  venue: University of Waterloo
- address: Rm 255, Sobey Building, Saint Mary's University, Halifax, Nova Scotia
  country: Canada
  enddate: 2012-07-17
  humandate: July 16-17, 2012
  humantime: 9:00 am - 4:30 pm
  instructor: [Justin Ely, Greg Wilson]
  latlng: 44.6322608,-63.5802627
  layout: bootcamp
  registration: open
  slug: 2012-07-16-halifax
  startdate: 2012-07-16
  url: http://swcarpentry.github.io/2012-07-16-halifax/
  user: swcarpentry
  venue: Halifax
- country: Canada
  enddate: 2012-07-20
  humandate: July 19-20, 2012
  humantime: 9:00 am - 4:30 pm
  instructor: [Dhavide Aruliah, Jonathan Dursi, Greg Wilson]
  latlng: 43.7835514,-79.1863972
  layout: bootcamp
  registration: open
  slug: 2012-07-19-utsc
  startdate: 2012-07-19
  url: http://swcarpentry.github.io/2012-07-19-utsc/
  user: swcarpentry
  venue: University of Toronto (Scarborough)
- address: University of York
  country: United-Kingdom
  enddate: 2012-09-14
  humandate: Sept 13-14, 2012
  humantime: 9:00 am - 4:30 pm
  instructor: [Chris Cannam, Adam Stark, Becky Stewart, Greg Wilson]
  latlng: 53.9481933,-1.0529144
  layout: bootcamp
  registration: open
  slug: 2012-09-13-dafx
  startdate: 2012-09-13
  url: http://swcarpentry.github.io/2012-09-13-dafx/
  user: swcarpentry
  venue: DAFx Conference
- address: Room 3213, Kristine Bonnevies hus, Blindernveien 31, University of Oslo
  country: Norway
  enddate: 2012-09-18
  humandate: Sept 17-18, 2012
  humantime: 9:00 am - 4:30 pm
  instructor: [Hans Petter Langtangen, Greg Wilson]
  latlng: 59.9399586,10.7217496
  layout: bootcamp
  registration: open
  slug: 2012-09-17-oslo
  startdate: 2012-09-17
  url: http://swcarpentry.github.io/2012-09-17-oslo/
  user: swcarpentry
  venue: University of Oslo
- country: United-States
  enddate: 2012-09-29
  humandate: Sept 28-29, 2012
  instructor: [Erik Bray, Chang She, Eric Weinstein, Greg Wilson]
  latlng: 40.8080777,-73.9635678
  layout: bootcamp
  registration: open
  slug: 2012-09-28-columbia
  startdate: 2012-09-28
  url: http://swcarpentry.github.io/2012-09-28-columbia/
  user: swcarpentry
  venue: Columbia University
- address: Stewart Center, Room 318
  country: United-States
  enddate: 2012-10-09
  humandate: Oct 8-9, 2012
  humantime: 9:00 am - 4:30 pm
  instructor: [Michael Hansen, Anthony Scopatz]
  latlng: 40.4282668,-86.9143245
  layout: bootcamp
  registration: open
  slug: 2012-10-08-purdue
  startdate: 2012-10-08
  url: http://swcarpentry.github.io/2012-10-08-purdue/
  user: swcarpentry
  venue: Purdue University
- address: Building 50A, Room 5132
  country: United-States
  enddate: 2012-10-18
  humandate: Oct 17-18, 2012
  humantime: 9:00 am - 4:30 pm
  instructor: [Matt Davis, Katy Huff, Justin Kitzes]
  latlng: 37.8759281,-122.2500418
  layout: bootcamp
  registration: open
  slug: 2012-10-17-lbl
  startdate: 2012-10-17
  url: http://swcarpentry.github.io/2012-10-17-lbl/
  user: swcarpentry
  venue: Lawrence Berkeley National Laboratory
- country: Canada
  enddate: 2012-10-19
  eventbrite: 3869257052
  humandate: Oct 18-19, 2012
  humantime: 9:00 am - 4:30 pm
  instructor: [Davor Cubranic, Ted Hart, Laura Tremblay-Boyer, Greg Wilson]
  latlng: 49.2617149,-123.2534305
  layout: bootcamp
  registration: open
  slug: 2012-10-18-ubc
  startdate: 2012-10-18
  url: http://swcarpentry.github.io/2012-10-18-ubc/
  user: swcarpentry
  venue: University of British Columbia
- address: Goldman School of Public Policy, Room 150
  country: United-States
  enddate: 2012-10-21
  eventbrite: 3942004642
  humandate: Oct 20-21, 2012
  humantime: 9:00 am - 4:30 pm
  instructor: [Matt Davis, Katy Huff, Justin Kitzes]
  latlng: 37.8695,-122.258949
  layout: bootcamp
  registration: open
  slug: 2012-10-20-ucb
  startdate: 2012-10-20
  url: http://swcarpentry.github.io/2012-10-20-ucb/
  user: swcarpentry
  venue: University of California Berkeley
- country: United-Kingdom
  enddate: 2012-10-23
  humandate: Oct 22-23, 2012
  instructor: [Mike Jackson, Steve McGough]
  latlng: 54.980095,-1.6146142
  layout: bootcamp
  registration: open
  slug: 2012-10-22-newcastle
  startdate: 2012-10-22
  url: http://swcarpentry.github.io/2012-10-22-newcastle/
  user: swcarpentry
  venue: University of Newcastle
- address: 383 Hill Annex, Caltech Campus, Pasadena, CA 91125
  country: United-States
  enddate: 2012-10-24
  humandate: Oct 23-24, 2012
  humantime: 9:00 am - 4:30 pm
  instructor: [Matt Davis]
  latlng: 34.141411,-118.1249
  layout: bootcamp
  registration: open
  slug: 2012-10-23-caltech
  startdate: 2012-10-23
  url: http://swcarpentry.github.io/2012-10-23-caltech/
  user: swcarpentry
  venue: Caltech
- country: United-States
  enddate: 2012-10-26
  eventbrite: 4647209930
  humandate: Oct 25-26, 2012
  instructor: [Azalee Bostroem, Erik Bray]
  latlng: 38.831513,-77.308746
  layout: bootcamp
  registration: open
  slug: 2012-10-25-gmu
  startdate: 2012-10-25
  url: http://swcarpentry.github.io/2012-10-25-gmu/
  user: swcarpentry
  venue: George Mason University
- address: New Biochemistry
  contact: philip.fowler@bioch.ox.ac.uk
  country: United-Kingdom
  enddate: 2012-10-31
  humandate: Oct 30-31, 2012
  humantime: 9:00 am - 5:00 pm
  instructor: [Stephen Crouch, Mike Jackson]
  latlng: 51.7571373,-1.2569052
  layout: bootcamp
  registration: open
  slug: 2012-10-30-oxford
  startdate: 2012-10-30
  url: http://swcarpentry.github.io/2012-10-30-oxford/
  user: swcarpentry
  venue: Oxford University
- address: Information Technology Building, Room A113
  country: Canada
  enddate: 2012-11-09
  eventbrite: 4522284274
  humandate: Nov 8-9, 2012
  humantime: 9:00 am - 4:30 pm
  instructor: [Dhavide Aruliah, Lynne Williams, Greg Wilson]
  latlng: 43.2613285,-79.9202476
  layout: bootcamp
  registration: open
  slug: 2012-11-08-mcmaster
  startdate: 2012-11-08
  url: http://swcarpentry.github.io/2012-11-08-mcmaster/
  user: swcarpentry
  venue: McMaster University
- address: Life Sciences Building
  country: United-States
  enddate: 2012-11-11
  eventbrite: 4262808174
  humandate: Nov 10-11, 2012
  humantime: 9:00 am - 4:30 pm
  instructor: [Justin Ely, Jessica Kerr, Sarah Supp]
  latlng: 38.6480562,-90.3050959
  layout: bootcamp
  registration: open
  slug: 2012-11-10-wustl
  startdate: 2012-11-10
  url: http://swcarpentry.github.io/2012-11-10-wustl/
  user: swcarpentry
  venue: Washington University in St. Louis
- address: La Jolla, CA
  country: United-States
  enddate: 2012-11-16
  eventbrite: 3869222950
  humandate: Nov 15-16, 2012
  humantime: 9:00 am - 4:30 pm
  instructor: [C. Titus Brown, Justin Kitzes, Caitlyn Pickens, Tracy Teal]
  latlng: 32.8953297,-117.2421882
  layout: bootcamp
  registration: open
  slug: 2012-11-15-scripps
  startdate: 2012-11-15
  url: http://swcarpentry.github.io/2012-11-15-scripps/
  user: swcarpentry
  venue: Scripps Research Institute
- country: United-States
  enddate: 2012-11-29
  eventbrite: 4224585850
  humandate: Nov 28-29, 2012
  humantime: 9:00 am - 4:30 pm
  instructor: [Ethan White, Greg Wilson]
  latlng: 34.2274248,-77.8791793
  layout: bootcamp
  registration: open
  slug: 2012-11-28-unc
  startdate: 2012-11-28
  url: http://swcarpentry.github.io/2012-11-28-unc/
  user: swcarpentry
  venue: University of North Carolina
- address: Hawaii Institute of Marine Biology
  country: United-States
  enddate: 2012-12-01
  eventbrite: 4314420548
  humandate: Nov 30 - Dec 1, 2012
  humantime: 9:00 am - 4:30 pm
  instructor: [Erik Bray, Fernando Perez]
  latlng: 21.3006615,-157.8191655
  layout: bootcamp
  registration: open
  slug: 2012-11-30-hawaii
  startdate: 2012-11-30
  url: http://swcarpentry.github.io/2012-11-30-hawaii/
  user: swcarpentry
  venue: University of Hawaii
- contact: michaelj@epcc.ed.ac.uk
  country: United-Kingdom
  enddate: 2012-12-05
  humandate: Dec 4-5, 2012
  humantime: 9:00 am - 4:30 pm
  instructor: [Azalee Bostroem, Mike Jackson]
  latlng: 55.9453279,-3.1911838
  layout: bootcamp
  registration: open
  slug: 2012-12-04-edinburgh
  startdate: 2012-12-04
  url: http://swcarpentry.github.io/2012-12-04-edinburgh/
  user: swcarpentry
  venue: University of Edinburgh
- country: United-States
  enddate: 2012-12-11
  eventbrite: 3666777430
  humandate: Dec 10-11, 2012
  humantime: 9:00 am - 4:30 pm
  instructor: [Rosangela Canino-Koning, Emily Jane McTavish, Jason Pell, Andy Terrel]
  latlng: 30.2835989,-97.7344283
  layout: bootcamp
  registration: open
  slug: 2012-12-10-uta
  startdate: 2012-12-10
  url: http://swcarpentry.github.io/2012-12-10-uta/
  user: swcarpentry
  venue: University of Texas (Austin)
- address: MSL 101
  country: Canada
  enddate: 2013-01-12
  humandate: Jan 11 2013
  humantime: 9:00 am - 4:30 pm
  instructor: [Jennifer Bryan, Davor Cubranic, Ted Hart, Bernhard Konrad, Rick White]
  latlng: 49.2617149,-123.2534305
  layout: bootcamp
  registration: open
  slug: 2013-01-11-ubc
  startdate: 2013-01-11
  url: http://swcarpentry.github.io/2013-01-11-ubc/
  user: swcarpentry
  venue: University of British Columbia
- address: Kent Hall, Room 120, 1020 East 58th Street Chicago, IL 60637
  country: United-States
  enddate: 2013-01-13
  eventbrite: 4044017766
  humandate: Jan 12-13, 2013
  humantime: 9:00 am - 4:30 pm
  instructor: [Katy Huff, Anthony Scopatz]
  latlng: 41.7901128,-87.6007318
  layout: bootcamp
  registration: open
  slug: 2013-01-12-chicago
  startdate: 2013-01-12
  url: http://swcarpentry.github.io/2013-01-12-chicago/
  user: swcarpentry
  venue: University of Chicago
- country: Canada
  enddate: 2013-01-13
  eventbrite: 4859419655
  humandate: Jan 12-13, 2013
  humantime: 9:00 am - 4:30 pm
  instructor: [Ross Dickson, Jessica McKellar]
  latlng: 45.4174172,-73.9489284
  layout: bootcamp
  registration: open
  slug: 2013-01-12-mcgill
  startdate: 2013-01-12
  url: http://swcarpentry.github.io/2013-01-12-mcgill/
  user: swcarpentry
  venue: McGill University
- address: Engineering 6 Building, Room 4022
  country: Canada
  enddate: 2013-01-13
  eventbrite: 4455642948
  humandate: Jan 12-13, 2013
  humantime: 9:00 am - 4:30 pm
  instructor: [Nasser Mohieddin Abukhdeir, Greg Wilson]
  latlng: 43.4691285,-80.5398649
  layout: bootcamp
  registration: open
  slug: 2013-01-12-waterloo
  startdate: 2013-01-12
  url: http://swcarpentry.github.io/2013-01-12-waterloo/
  user: swcarpentry
  venue: University of Waterloo
- address: MSL 101
  country: Canada
  enddate: 2013-01-22
  humandate: Jan 21-22, 2013
  humantime: 9:00 am - 4:30 pm
  instructor: [Jennifer Bryan, Davor Cubranic, Ted Hart, Bernhard Konrad, Rick White]
  latlng: 49.2617149,-123.2534305
  layout: bootcamp
  registration: open
  slug: 2013-01-21-ubc
  startdate: 2013-01-21
  url: http://swcarpentry.github.io/2013-01-21-ubc/
  user: swcarpentry
  venue: University of British Columbia
- address: 1 Maximus-von-Imhof-Forum, 85354 Freising, Germany
  country: Germany
  enddate: 2013-01-23
  eventbrite: 4602466100
  humandate: Jan 22-23, 2013
  humantime: 9:00 am - 4:30 pm
  instructor: [Stephen Crouch, Konrad Hinsen]
  latlng: 48.264934,11.669121
  layout: bootcamp
  registration: open
  slug: 2013-01-22-tum
  startdate: 2013-01-22
  url: http://swcarpentry.github.io/2013-01-22-tum/
  user: swcarpentry
  venue: Technische Universitat Munchen
- address: Suite 500, 366 Adelaide St West, Toronto, ON
  country: Canada
  enddate: 2013-01-25
  eventbrite: 5086301264
  humandate: Jan 24-25, 2013
  humantime: 9:00 am - 4:30 pm
  instructor: [Greg Wilson]
  latlng: 43.6471184,-79.3942998
  layout: bootcamp
  registration: open
  slug: 2013-01-24-camh
  startdate: 2013-01-24
  url: http://swcarpentry.github.io/2013-01-24-camh/
  user: swcarpentry
  venue: Mozilla Foundation
- address: 41 Spemannstrasse, 72076 Tuebingen, Germany
  country: Germany
  enddate: 2013-01-26
  eventbrite: 5014203618
  humandate: Jan 25-25, 2013
  humantime: 9:00 am - 4:30 pm
  instructor: [Stephen Crouch, Luis Figueira]
  latlng: 48.5369804,9.058935
  layout: bootcamp
  registration: open
  slug: 2013-01-25-tuebingen
  startdate: 2013-01-25
  url: http://swcarpentry.github.io/2013-01-25-tuebingen/
  user: swcarpentry
  venue: Max Planck Institute Tuebingen
- country: United-States
  enddate: 2013-02-02
  humandate: Jan 30 - Feb 2, 2013
  humantime: 9:00 am - 4:30 pm
  instructor: [Adina Chuang Howe, Justin Ely, Daniel Krasner, Jared Lander, Ian Langmore,
    Chang She, Alex Viana, David Warde-Farley]
  latlng: 40.8080777,-73.9635678
  layout: bootcamp
  registration: restricted
  slug: 2013-01-30-columbia
  startdate: 2013-01-30
  url: http://swcarpentry.github.io/2013-01-30-columbia/
  user: swcarpentry
  venue: Columbia University
- country: United-States
  enddate: 2013-02-01
  humandate: Jan 31 - Feb 1, 2013
  humantime: 9:00 am - 4:30 pm
  instructor: [Tommy Guy, Chris Lasher]
  latlng: 37.2283843,-80.4234167
  layout: bootcamp
  registration: open
  slug: 2013-01-31-vt
  startdate: 2013-01-31
  url: http://swcarpentry.github.io/2013-01-31-vt/
  user: swcarpentry
  venue: Virginia Tech
- country: Canada
  enddate: 2013-02-06
  eventbrite: 5227315040
  humandate: Feb 5-6, 2013
  humantime: 9:00 am - 4:30 pm
  instructor: [Ted Hart, Ethan White]
  latlng: 49.2617149,-123.2534305
  layout: bootcamp
  registration: open
  slug: 2013-02-05-ubc
  startdate: 2013-02-05
  url: http://swcarpentry.github.io/2013-02-05-ubc/
  user: swcarpentry
  venue: University of British Columbia
- address: Room E8A 341, Macquarie University, Sydney
  country: Australia
  enddate: 2013-02-08
  eventbrite: 4114901782
  humandate: Feb 7-8, 2013
  humantime: 9:00 am - 4:30 pm
  instructor: [Eli Bressert, Greg Wilson]
  latlng: -33.773636,151.112005
  layout: bootcamp
  registration: open
  slug: 2013-02-07-macquarie
  startdate: 2013-02-07
  url: http://swcarpentry.github.io/2013-02-07-macquarie/
  user: swcarpentry
  venue: Macquarie University
- address: Theatre 2 (room 109), Alan Gilbert Building, University of Melbourne
  country: Australia
  enddate: 2013-02-15
  humandate: Feb 14-15, 2013
  humantime: 9:00 am - 4:30 pm
  instructor: [Greg Wilson]
  latlng: -37.8253285,144.9516212
  layout: bootcamp
  registration: open
  slug: 2013-02-14-amos
  startdate: 2013-02-14
  url: http://swcarpentry.github.io/2013-02-14-amos/
  user: swcarpentry
  venue: AMOS Conference (Melbourne)
- country: United-States
  enddate: 2013-02-26
  eventbrite: 4309568034
  humandate: Feb 25-26, 2013
  humantime: 9:00 am - 4:30 pm
  instructor: [C. Titus Brown, Matt Davis, Julia Gustavsen, Bernhard Konrad, Doug
      Latornell, Greg Wilson]
  latlng: 47.655965,-122.309377
  layout: bootcamp
  registration: open
  slug: 2013-02-25-uwash
  startdate: 2013-02-25
  url: http://swcarpentry.github.io/2013-02-25-uwash/
  user: swcarpentry
  venue: University of Washington
- country: United-States
  enddate: 2013-03-07
  humandate: March 4-5 and March 6-7, 2013
  instructor: [Geoff Oxberry, Greg Wilson]
  latlng: 37.8759281,-122.2500418
  layout: bootcamp
  registration: restricted
  slug: 2013-03-04-lbl
  startdate: 2013-03-04
  url: http://swcarpentry.github.io/2013-03-04-lbl/
  user: swcarpentry
  venue: Lawrence Berkeley National Laboratory
- country: United-States
  enddate: 2013-03-08
  humandate: March 7-8, 2013
  humantime: 9:00 am - 4:30 pm
  instructor: [Carlos Anderson, Stephen Crouch, Ben Morris]
  latlng: 38.031441,-78.499356
  layout: bootcamp
  registration: restricted
  slug: 2013-03-07-virginia
  startdate: 2013-03-07
  url: http://swcarpentry.github.io/2013-03-07-virginia/
  user: swcarpentry
  venue: University of Virginia
- country: Lebanon
  enddate: 2013-03-21
  humandate: March 20-21, 2013
  humantime: 9:00 am - 4:30 pm
  instructor: [Aron Ahmadia]
  latlng: 33.900058,35.482727
  layout: bootcamp
  registration: open
  slug: 2013-03-20-aub
  startdate: 2013-03-20
  url: http://swcarpentry.github.io/2013-03-20-aub/
  user: swcarpentry
  venue: American University of Beirut
- address: Room 314, Biology and Natural Resources Building, Utah State University,
    5305 Old Main Hill, Logan, UT
  country: United-States
  enddate: 2013-03-24
  eventbrite: 5398228246
  humandate: March 23-24, 2013
  humantime: 9:00 am - 4:30 pm
  instructor: [Dan McGlinn, Ethan White]
  latlng: 41.7449488,-111.8042944
  layout: bootcamp
  registration: open
  slug: 2013-03-23-utahstate
  startdate: 2013-03-23
  url: http://swcarpentry.github.io/2013-03-23-utahstate/
  user: swcarpentry
  venue: Utah State University
- address: Library Computer Laboratory
  country: Saudi-Arabia
  enddate: 2013-03-25
  eventbrite: 5790053205
  humandate: March 24-25, 2013
  humantime: 9:00 am - 4:30 pm
  instructor: [Aron Ahmadia, David Ketcheson, Enas Yunis]
  latlng: 22.3101,39.1259
  layout: bootcamp
  registration: full
  slug: 2013-03-24-kaust
  startdate: 2013-03-24
  url: http://swcarpentry.github.io/2013-03-24-kaust/
  user: swcarpentry
  venue: King Abdullah University of Science and Technology
- country: United-States
  enddate: 2013-04-05
  eventbrite: 5396735782
  humandate: April 4-5, 2013
  humantime: 9:00 am - 4:30 pm
  instructor: [C. Titus Brown, Karen Cranston, Rich Enbody, David Koop]
  latlng: 32.2363584,-110.9495396
  layout: bootcamp
  registration: full
  slug: 2013-04-04-arizona
  startdate: 2013-04-04
  url: http://swcarpentry.github.io/2013-04-04-arizona/
  user: swcarpentry
  venue: University of Arizona
- contact: host-ucl@software-carpentry.org
  country: United-Kingdom
  enddate: 2013-04-08
  eventbrite: 5396735782
  humandate: April 4 and 8, 2013
  humantime: 9:00 am - 4:30 pm
  instructor: [Ben Waugh, James Hetherington, Miguel Bernabeu, Andrew Smith]
  latlng: 51.524789,-0.133578
  layout: bootcamp
  registration: restricted
  slug: 2013-04-04-ucl
  startdate: 2013-04-04
  url: http://swcarpentry.github.io/2013-04-04-ucl/
  user: swcarpentry
  venue: University College London
- address: Room A306, Engineering Building
  country: South-Africa
  enddate: 2013-04-09
  eventbrite: 6014414275
  humandate: April 8-9, 2013
  humantime: 1:00 pm - 6:00 pm on day one, noon - 4:00 pm on day two
  instructor: [Aron Ahmadia]
  latlng: -33.929492,18.865391
  layout: bootcamp
  registration: open
  slug: 2013-04-08-stellenbosch
  startdate: 2013-04-08
  url: http://swcarpentry.github.io/2013-04-08-stellenbosch/
  user: swcarpentry
  venue: Stellenbosch University
- contact: michaelj@epcc.ed.ac.uk
  country: United-Kingdom
  enddate: 2013-04-12
  humandate: April 11, 2013
  humantime: 10:00 - 17:30
  instructor: [Mike Jackson]
  latlng: 53.467102,-2.233958
  layout: bootcamp
  registration: open
  slug: 2013-04-11-egi
  startdate: 2013-04-11
  url: http://swcarpentry.github.io/2013-04-11-egi/
  user: swcarpentry
  venue: EGI Forum, Manchester
- country: United-States
  enddate: 2013-04-14
  humandate: April 13-14, 2013
  instructor: [Justin Kitzes, Karthik Ram]
  latlng: 37.8695,-122.258949
  layout: bootcamp
  registration: restricted
  slug: 2013-04-13-ucb
  startdate: 2013-04-13
  url: http://swcarpentry.github.io/2013-04-13-ucb/
  user: swcarpentry
  venue: University of California Berkeley
- contact: host-manchester@software-carpentry.org
  country: United-Kingdom
  enddate: 2013-04-19
  eventbrite: 5397207192
  humandate: April 18-19, 2013
  instructor: [Mike Jackson, David Jones, Aleksandra Pawlik]
  latlng: 53.4783491,-2.2416052
  layout: bootcamp
  registration: open
  slug: 2013-04-18-manchester
  startdate: 2013-04-18
  url: http://swcarpentry.github.io/2013-04-18-manchester/
  user: swcarpentry
  venue: University of Manchester
- address: 46 Rue Barrault, 75013 Paris
  country: France
  enddate: 2013-04-21
  eventbrite: 5232959924
  humandate: April 20-21, 2013
  humantime: 9:00 am - 4:30 pm
  instructor: [Sergi Blanco-Cuaresma, Christophe Cossou, Alexandre Gramfort, Konrad
      Hinsen, Nicolas Limare, Gael Varoquaux, Nelle Varoquaux]
  latlng: 48.82629,2.34642
  layout: bootcamp
  registration: open
  slug: 2013-04-20-paris
  startdate: 2013-04-20
  url: http://swcarpentry.github.io/2013-04-20-paris/
  user: swcarpentry
  venue: Telecom ParisTech
- address: N111, Pharmacy Hall
  country: United-States
  enddate: 2013-04-28
  eventbrite: 5919069095
  humandate: April 27-28, 2013
  humantime: 9:00 am - 4:30 pm
  instructor: [Azalee Bostroem, Alex Viana]
  latlng: 39.291389,-76.625
  layout: bootcamp
  registration: open
  slug: 2013-04-27-umaryland
  startdate: 2013-04-27
  url: http://swcarpentry.github.io/2013-04-27-umaryland/
  user: swcarpentry
  venue: University of Maryland, Baltimore
- address: Union South "Fifth Quarter" room
  country: United-States
  enddate: 2013-04-30
  eventbrite: 5915929705
  humandate: April 29-30, 2013
  humantime: 9:00 am - 4:30 pm
  instructor: [Matt Gidden, Steve Mcgough, Aronne Merrelli, Paul Wilson]
  latlng: 43.07718,-89.40399
  layout: bootcamp
  registration: open
  slug: 2013-04-29-wisc
  startdate: 2013-04-29
  url: http://swcarpentry.github.io/2013-04-29-wisc/
  user: swcarpentry
  venue: University of Wisconsin - Madison
- address: Faculty of Sciences, Vrije Universiteit, De Boelelaan 1081, 1081 HV Amsterdam
  country: Netherlands
  enddate: 2013-05-03
  humandate: May 2-3, 2013
  humantime: 9:00 am - 4:30 pm
  instructor: [Stefano Cozzini, Justin Ely]
  latlng: 52.33399,4.86305
  layout: bootcamp
  registration: open
  slug: 2013-05-02-vu
  startdate: 2013-05-02
  url: http://swcarpentry.github.io/2013-05-02-vu/
  user: swcarpentry
  venue: Vrije Universiteit, Amsterdam
- address: Christian-Albrechts-Universit&auml;t zu Kiel, Christian-Albrechts-Platz
    4, 24118 Kiel, Germany
  country: Germany
  enddate: 2013-05-07
  humandate: May 6-7, 2013
  humantime: 9:00 am - 4:30 pm
  instructor: [Stefano Cozzini, Justin Ely]
  latlng: 54.32707,10.18265
  layout: bootcamp
  registration: restricted
  slug: 2013-05-06-geomar
  startdate: 2013-05-06
  url: http://swcarpentry.github.io/2013-05-06-geomar/
  user: swcarpentry
  venue: GEOMAR (Kiel)
- address: Axon/Dendrite Room, Landscape Building, Howard Hughes Medical Institute,
    Janelia Farm Research Campus, 19700 Helix Drive, Ashburn, VA 20147
  country: United-States
  enddate: 2013-05-07
  humandate: May 6-7, 2013
  humantime: 9:00 am - 4:30 pm
  instructor: [Adina Chuang-Howe, Michael Hansen]
  latlng: 39.07141,-77.46427
  layout: bootcamp
  registration: restricted
  slug: 2013-05-06-hhmi
  startdate: 2013-05-06
  url: http://swcarpentry.github.io/2013-05-06-hhmi/
  user: swcarpentry
  venue: Howard Hughes Medical Institute
- address: Room B005, Li Ka Shing Center for Learning and Knowledge, Stanford University
  country: United-States
  enddate: 2013-05-07
  humandate: May 6-7, 2013
  humantime: 9:00 am - 4:30 pm
  instructor: [Paul Ivanov, Bernhard Konrad, Ariel Rokem]
  latlng: 37.42949,-122.17186
  layout: bootcamp
  registration: full
  slug: 2013-05-06-stanford
  startdate: 2013-05-06
  url: http://swcarpentry.github.io/2013-05-06-stanford/
  user: swcarpentry
  venue: Stanford University
- country: United-States
  enddate: 2013-05-10
  humandate: May 9-10, 2013
  humantime: 9:00 am - 4:30 pm
  instructor: [Azalee Bostroem, Matt Davis, Tracy Teal]
  latlng: 37.8759281,-122.2500418
  layout: bootcamp
  registration: restricted
  slug: 2013-05-09-lbl
  startdate: 2013-05-09
  url: http://swcarpentry.github.io/2013-05-09-lbl/
  user: swcarpentry
  venue: Lawrence Berkeley National Laboratory
- address: 366 Adelaide Street West, Suite 500, Toronto, ON
  country: Canada
  enddate: 2013-05-10
  eventbrite: 6181024611
  humandate: May 9-10, 2013
  humantime: 9:00 am - 4:30 pm
  instructor: [Gabriel Devenyi, Caitlyn Pickens, Victor Ng, Greg Wilson]
  latlng: 43.64712,-79.39430
  layout: bootcamp
  registration: open
  slug: 2013-05-09-mozilla
  startdate: 2013-05-09
  url: http://swcarpentry.github.io/2013-05-09-mozilla/
  user: swcarpentry
  venue: Mozilla Foundation (Toronto)
- contact: host-oxford-dtc@software-carpentry.org
  country: United-Kingdom
  enddate: 2013-05-10
  eventbrite: 5656292122
  humandate: May 9-10, 2013
  instructor: [Mario Antonioletti, Shoaib Sufi]
  latlng: 51.759865,-1.258648
  layout: bootcamp
  registration: restricted
  slug: 2013-05-09-oxford
  startdate: 2013-05-09
  url: http://swcarpentry.github.io/2013-05-09-oxford/
  user: swcarpentry
  venue: University of Oxford
- address: King Lounge (Room 245), Memorial Union
  country: United-States
  enddate: 2013-05-14
  eventbrite: 5553687228
  humandate: May 13-14, 2013
  humantime: 9:00 am - 4:30 pm
  instructor: [Azalee Bostroem, Matt Davis, Chloe Lewis, Tracy Teal]
  latlng: 38.54926,-121.76709
  layout: bootcamp
  registration: full
  slug: 2013-05-13-ucdavis
  startdate: 2013-05-13
  url: http://swcarpentry.github.io/2013-05-13-ucdavis/
  user: swcarpentry
  venue: University of California Davis
- country: United-States
  enddate: 2013-05-17
  eventbrite: 5899249815
  humandate: May 16-17, 2013
  humantime: 9:00 am - 4:30 pm
  instructor: [Jennifer Bryan, Karen Cranston, Ben Morris]
  latlng: 36.00803,-78.92323
  layout: bootcamp
  registration: open
  slug: 2013-05-16-nescent
  startdate: 2013-05-16
  url: http://swcarpentry.github.io/2013-05-16-nescent/
  user: swcarpentry
  venue: NESCent
- address: Krakow, Poland
  country: Poland
  enddate: 2013-05-19
  humandate: May 18-19, 2013
  humantime: 9:00 am - 4:30 pm
  instructor: [Aleksandra Pawlik, Karin Lagesen]
  latlng: 50.060833,19.932778
  layout: bootcamp
  registration: restricted
  slug: 2013-05-18-krakow
  startdate: 2013-05-18
  url: http://swcarpentry.github.io/2013-05-18-krakow/
  user: swcarpentry
  venue: Jagiellonian University
- country: United-States
  enddate: 2013-05-21
  humandate: May 20-21, 2013
  humantime: 9:00 am - 4:30 pm
  instructor: [Jennifer Bryan, Ben Morris]
  latlng: 36.00283,-78.93827
  layout: bootcamp
  registration: restricted
  slug: 2013-05-20-duke
  startdate: 2013-05-20
  url: http://swcarpentry.github.io/2013-05-20-duke/
  user: swcarpentry
  venue: Duke University
- address: National Center for Atmospheric Research, Boulder, CO
  country: United-States
  enddate: 2013-05-24
  humandate: May 23-24, 2013
  humantime: 9:00 am - 4:30 pm
  instructor: [Ted Hart, Alex Viana]
  latlng: 40.03131,-105.2459
  layout: bootcamp
  registration: restricted
  slug: 2013-05-23-ucar
  startdate: 2013-05-23
  url: http://swcarpentry.github.io/2013-05-23-ucar/
  user: swcarpentry
  venue: NCAR
- address: Skinner 112, UMass Amherst
  country: United-States
  enddate: 2013-05-24
  humandate: May 23-24, 2013
  humantime: 9:00 am - 4:30 pm
  instructor: [Tracy Teal, Erik Bray]
  latlng: 42.388889,-72.527778
  layout: bootcamp
  registration: restricted
  slug: 2013-05-23-umass
  startdate: 2013-05-23
  url: http://swcarpentry.github.io/2013-05-23-umass/
  user: swcarpentry
  venue: University of Massachusetts Amherst
- address: Biological Sciences Building, Central Wing 410 (CW410), University of Alberta
  country: Canada
  enddate: 2013-05-31
  eventbrite: 5824534339
  humandate: May 30-31, 2013
  humantime: 9:00 am - 4:30 pm
  instructor: [Charlene Nielsen, Greg Wilson]
  latlng: 53.52345,-113.52600
  layout: bootcamp
  registration: full
  slug: 2013-05-30-alberta
  startdate: 2013-05-30
  url: http://swcarpentry.github.io/2013-05-30-alberta/
  user: swcarpentry
  venue: University of Alberta
- contact: host-soton@software-carpentry.org
  country: United-Kingdom
  enddate: 2013-06-04
  humandate: June 3-4, 2013
  humantime: 9:00 am - 5:00 pm
  instructor: [Nelle Varoquaux, James Morrison]
  latlng: 50.937716,-1.395599
  layout: bootcamp
  registration: restricted
  slug: 2013-06-03-southampton
  startdate: 2013-06-03
  url: http://swcarpentry.github.io/2013-06-03-southampton/
  user: swcarpentry
  venue: University of Southampton
- country: United-States
  enddate: 2013-06-04
  humandate: June 3-4, 2013
  humantime: 9:00 am - 4:30 pm
  instructor: [Aron Ahmadia, Jessica Mckellar, Michael Selik, Will Trimble]
  latlng: 42.35076,-71.06274
  layout: bootcamp
  registration: restricted
  slug: 2013-06-03-tufts
  startdate: 2013-06-03
  url: http://swcarpentry.github.io/2013-06-03-tufts/
  user: swcarpentry
  venue: Tufts University
- address: University of Chicago
  country: United-States
  enddate: 2013-06-05
  humandate: June 4-5 and June 17-18, 2013
  humantime: 9:00 am - 4:30 pm
  instructor: [Elliott Hauser, Fernanda Foertter, John Blischak]
  latlng: 41.789722,-87.599722
  layout: bootcamp
  registration: restricted
  slug: 2013-06-04-dssg
  startdate: 2013-06-04
  url: http://swcarpentry.github.io/2013-06-04-dssg/
  user: swcarpentry
  venue: Data Science for Social Good
- address: Blusson Hall Room 10011, Simon Fraser University, Burnaby BC.
  country: Canada
  enddate: 2013-06-07
  eventbrite: 6744439801
  humandate: June 6-7, 2013
  humantime: 9:00 am - 4:30 pm
  instructor: [Lynne Williams, Ted Hart, Bernhard Konrad, Julia Gustavsen]
  latlng: 49.276765,-122.917957
  layout: bootcamp
  registration: open
  slug: 2013-06-06-sfu
  startdate: 2013-06-06
  url: http://swcarpentry.github.io/2013-06-06-sfu/
  user: swcarpentry
  venue: Simon Fraser University
- address: La Jolla, CA
  country: United-States
  enddate: 2013-06-11
  humandate: June 10-11, 2013
  humantime: 9:00 am - 4:30 pm
  instructor: [Jessica Kerr, Dhavide Aruliah, Bill Punch]
  latlng: 32.887151,-117.246212
  layout: bootcamp
  registration: restricted
  slug: 2013-06-10-salk
  startdate: 2013-06-10
  url: http://swcarpentry.github.io/2013-06-10-salk/
  user: swcarpentry
  venue: Salk Institute
- country: United-States
  enddate: 2013-06-18
  humandate: June 17-18, 2013
  humantime: 9:00 am - 4:30 pm
  instructor: [John Blischak, Will Trimble, Randy Olson, Emily Davenport]
  latlng: 41.7901128,-87.6007318
  layout: bootcamp
  registration: restricted
  slug: 2013-06-17-chicago
  startdate: 2013-06-17
  url: http://swcarpentry.github.io/2013-06-17-chicago/
  user: swcarpentry
  venue: University of Chicago
- address: One Cambridge Center, Cambridge, MA 02142
  country: United-States
  enddate: 2013-06-25
  eventbrite: 6181177067
  humandate: June 24-25, 2013
  humantime: 9:00 am - 4:45 pm
  instructor: [Tracy Teal, Sheeri Cabral, Adina Chuang-Howe, Jessica Mckellar, Aleksandra
      Pawlik, Sarah Supp, Nelle Varoquaux]
  latlng: 42.3625,-71.085
  layout: bootcamp
  registration: open
  root: ../..
  slug: 2013-06-24-wise
  startdate: 2013-06-24
  url: http://swcarpentry.github.io/2013-06-24-wise/
  user: swcarpentry
  venue: Women in Science and Engineering (Boston)
- country: United-States
  enddate: 2013-05-26
  humandate: June 25, 2013
  humantime: 9:00 am - 4:30 pm
  instructor: [Matt Davis, Katy Huff]
  latlng: 30.2835989,-97.7344283
  layout: bootcamp
  registration: open
  slug: 2013-06-25-scipy
  startdate: 2013-05-25
  url: http://swcarpentry.github.io/2013-06-25-scipy/
  user: swcarpentry
  venue: SciPy 2013
- address: Undercroft Room, University of Canterbury, Christchurch
  country: New-Zealand
  enddate: 2013-07-04
  humandate: July 1-4, 2013
  humantime: 1:00 pm - 5:00 pm
  instructor: [Shreyas Cholia, Ariel Rokem, Tim McNamara, Nick Jones]
  latlng: -43.523333,172.581944
  layout: bootcamp
  registration: closed
  slug: 2013-07-01-christchurch
  startdate: 2013-07-01
  url: http://swcarpentry.github.io/2013-07-01-christchurch/
  user: swcarpentry
  venue: eResearch New Zealand
- address: The Core, Stephenson Research and Technology Center, University of Oklahoma
  country: United-States
  enddate: 2013-07-02
  humandate: July 1-2, 2013
  humantime: 9:00 am - 4:30 pm
  instructor: [Paul Ivanov, Aleksandra Pawlik]
  latlng: 35.20859,-97.44566
  layout: bootcamp
  registration: restricted
  slug: 2013-07-01-oklahoma
  startdate: 2013-07-01
  url: http://swcarpentry.github.io/2013-07-01-oklahoma/
  user: swcarpentry
  venue: University of Oklahoma
- address: Auditorium 2, Georg Sverdrups hus, Moltke Moes vei 39, Oslo
  country: Norway
  enddate: 2013-07-04
  eventbrite: 5398444894
  humandate: July 3-4, 2013
  humantime: 9:00 am - 4:30 pm
  instructor: [Karin Lagesen, Lex Nederbragt]
  latlng: 59.9399586,10.7217496
  layout: bootcamp
  registration: open
  slug: 2013-07-03-oslo
  startdate: 2013-07-03
  url: http://swcarpentry.github.io/2013-07-03-oslo/
  user: swcarpentry
  venue: University of Oslo
- address: Xiao Hong Shan No.44, Wuhan
  country: China
  enddate: 2013-07-09
  humandate: July 8-9, 2013
  humantime: 9:00 am - 5:00 pm
  instructor: [Karen Cranston, Qingpeng Zhang]
  latlng: 30.538977502418366,114.32192802429199
  layout: bootcamp
  registration: closed
  slug: 2013-07-08-wuhan
  startdate: 2013-07-08
  url: http://swcarpentry.github.io/2013-07-08-wuhan/
  user: swcarpentry
  venue: Wuhan Institute of Virology
- country: United-States
  enddate: 2013-07-12
  eventbrite: 6106951055
  humandate: July 11-12, 2013
  humantime: 9:00 am - 4:30 pm
  instructor: [Michael Hansen, Jeff Shelton]
  latlng: 39.1663815,-86.526621
  layout: bootcamp
  registration: open
  slug: 2013-07-11-indiana
  startdate: 2013-07-11
  url: http://swcarpentry.github.io/2013-07-11-indiana/
  user: swcarpentry
  venue: Indiana University
- contact: host-bath@software-carpentry.org
  country: United-Kingdom
  enddate: 2013-07-16
  eventbrite: 6059565323
  humandate: July 15-16, 2013
  humantime: 9:00 - 17:00
  instructor: [Mike Jackson, Christopher Woods]
  latlng: 51.3777431,-2.3263779
  layout: bootcamp
  registration: open
  slug: 2013-07-15-bath
  startdate: 2013-07-15
  url: http://swcarpentry.github.io/2013-07-15-bath/
  user: swcarpentry
  venue: University of Bath
- address: Sustainable Software for Chemistry and Materials Software Summer School
  country: United-States
  enddate: 2013-07-16
  humandate: July 15-16, 2013
  humantime: 9:00 am - 4:30 pm
  instructor: [Tommy Guy, Ross Dickson]
  latlng: 37.2283843,-80.4234167
  layout: bootcamp
  registration: restricted
  slug: 2013-07-15-vt
  startdate: 2013-07-15
  url: http://swcarpentry.github.io/2013-07-15-vt/
  user: swcarpentry
  venue: Virginia Tech
- address: Utah State University Engineering Building (ENGR) Room 302
  country: United-States
  enddate: 2013-07-17
  eventbrite: 6309398581
  humandate: July 16-17, 2013
  humantime: 9:00 am - 4:30 pm
  instructor: [Ben Morris, Ethan White]
  latlng: 41.74080,-111.81416
  layout: bootcamp
  registration: open
  slug: 2013-07-16-cuahsi
  startdate: 2013-07-16
  url: http://swcarpentry.github.io/2013-07-16-cuahsi/
  user: swcarpentry
  venue: CUAHSI Water Data Center
- address: 140 DeBartolo Hall
  country: United-States
  enddate: 2013-07-19
  eventbrite: 7012698169
  humandate: July 18-19, 2013
  humantime: 9:00 am - 4:30 pm
  instructor: [Randy Olson, Will Trimble]
  latlng: 41.70522,-86.23531
  layout: bootcamp
  registration: open
  slug: 2013-07-18-notredame
  startdate: 2013-07-18
  url: http://swcarpentry.github.io/2013-07-18-notredame/
  user: swcarpentry
  venue: University of Notre Dame
- country: United-States
  enddate: 2013-07-19
  humandate: July 18-19, 2013
  humantime: 9:00 am - 4:30 pm
  instructor: [Aron Ahmadia, Jacob Vanderplas, Kyle Mandli]
  latlng: 47.655,-122.303333
  layout: bootcamp
  registration: open
  slug: 2013-07-18-washington
  startdate: 2013-07-18
  url: http://swcarpentry.github.io/2013-07-18-washington/
  user: swcarpentry
  venue: University of Washington
- address: Pittsburgh, PA
  country: United-States
  enddate: 2013-07-28
  humandate: July 27-28, 2013
  humantime: 9:00 am - 4:30 pm
  instructor: [Erik Bray, Josh Smith]
  latlng: 40.443322,-79.943583
  layout: bootcamp
  registration: open
  slug: 2013-07-27-cmu
  startdate: 2013-07-27
  url: http://swcarpentry.github.io/2013-07-27-cmu/
  user: swcarpentry
  venue: Carnegie Mellon University
- address: Minneapolis Convention Center
  country: United-States
  enddate: 2013-08-04
  humandate: Aug 4, 2013
  humantime: 8:00 a.m. - 5:00 p.m.
  instructor: [Ted Hart, Ben Morris, Ethan White]
  latlng: 44.968657,-93.27457
  layout: bootcamp
  registration: restricted
  slug: 2013-08-04-esa
  startdate: 2013-08-04
  url: http://swcarpentry.github.io/2013-08-04-esa/
  user: swcarpentry
  venue: Ecological Society of America Annual Meeting
- address: The Commons, University of Kansas
  contact: ejm@ku.edu
  country: United-States
  enddate: 2013-08-23
  humandate: Aug 22-23, 2013
  humantime: 9:00 am - 4:30 pm
  instructor: [Darren Boss, Karen Cranston, Mark Holder, Emily Jane McTavish]
  latlng: 38.9584551,-95.2432842
  layout: bootcamp
  registration: restricted
  slug: 2013-08-22-ku
  startdate: 2013-08-22
  url: http://swcarpentry.github.io/2013-08-22-ku/
  user: swcarpentry
  venue: University of Kansas
- address: Vicksburg, MS
  country: United-States
  enddate: 2013-08-29
  humandate: Aug 27-29, 2013
  humantime: 9:00 am - 4:30 pm
  instructor: [Aron Ahmadia, Andy Terrel]
  latlng: 32.3019199,-90.8733522
  layout: bootcamp
  registration: restricted
  slug: 2013-08-27-erdc
  startdate: 2013-08-27
  url: http://swcarpentry.github.io/2013-08-27-erdc/
  user: swcarpentry
  venue: US Army Engineer Research and Development Center
- address: Wisconsin Institutes for Discovery, 3rd Floor Teaching Lab
  country: United-States
  enddate: 2013-08-29
  eventbrite: 7317971249
  humandate: Aug 28-29, 2013
  humantime: 8:30 a.m. - 4:30 p.m.
  instructor: [Matt Gidden, Jens von der Linden, Lauren Michael, Paul Wilson, Anthony
      Scopatz]
  latlng: 43.07718,-89.40399
  layout: bootcamp
  registration: restricted
  slug: 2013-08-28-wisc
  startdate: 2013-08-28
  url: http://swcarpentry.github.io/2013-08-28-wisc/
  user: swcarpentry
  venue: University of Wisconsin - Madison
- country: United-States
  enddate: 2013-09-06
  eventbrite: 7583026035
  humandate: Sept 5-6, 2013
  humantime: 9:00 am - 4:30 pm
  instructor: [Adina Chuang Howe, Jory Schossau]
  latlng: 41.66293,-91.56203
  layout: bootcamp
  registration: open
  slug: 2013-09-05-iowa
  startdate: 2013-09-05
  url: http://swcarpentry.github.io/2013-09-05-iowa/
  user: swcarpentry
  venue: University of Iowa
- contact: admin-uk@software-carpentry.org
  country: United-Kingdom
  enddate: 2013-09-13
  humandate: Sept 12-13, 2013
  humantime: 9:00 a.m. - 5:00 p.m.
  instructor: [Karthik Ram, Christopher Woods]
  latlng: 51.457971,-2.601474
  layout: bootcamp
  registration: restricted
  slug: 2013-09-12-bristol
  startdate: 2013-09-12
  url: http://swcarpentry.github.io/2013-09-12-bristol/
  user: swcarpentry
  venue: University of Bristol
- {country: Canada, enddate: 2013-09-22, humandate: 'Sept 21-22, 2013', latlng: '43.468889,-80.54',
  layout: bootcamp, registration: open, slug: 2013-09-21-uwaterloo, startdate: 2013-09-21,
  url: 'http://swcarpentry.github.io/2013-09-21-uwaterloo/', user: swcarpentry, venue: University
    of Waterloo}
- country: United-States
  enddate: 2013-09-26
  eventbrite: 7723648641
  humandate: Sept 23-26, 2013
  humantime: 8:00 am - 11:30 am
  instructor: [Randy Olson, Jory Schossau, Tracy Teal, Jordan Fish, Michael Crusoe]
  latlng: 42.724085,-84.476265
  layout: bootcamp
  registration: open
  slug: 2013-09-23-msu
  startdate: 2013-09-23
  url: http://swcarpentry.github.io/2013-09-23-msu/
  user: swcarpentry
  venue: Michigan State University
- address: Ingkarni Wardli, Room 218
  country: Australia
  enddate: 2013-09-26
  humandate: Sep 24-26, 2013
  humantime: 9:00 - 17:00
  instructor: [Ben Morris, Diego Barneche, Philipp Bayer]
  latlng: -34.919159,138.60414
  layout: bootcamp
  registration: restricted
  slug: 2013-09-24-acpfgA
  startdate: 2013-09-24
  url: http://swcarpentry.github.io/2013-09-24-acpfgA/
  user: swcarpentry
  venue: 'Australian Bioinformatics Network: Adelaide'
- address: ESB-5108
  country: Canada
  enddate: 2013-09-27
  eventbrite: 7405051709
  humandate: Sept 26-27, 2013
  instructor: [Julia Gustavsen, Doug Latornell]
  latlng: 49.261111,-123.253056
  layout: bootcamp
  registration: restricted
  slug: 2013-09-26-ubc
  startdate: 2013-09-26
  url: http://swcarpentry.github.io/2013-09-26-ubc/
  user: swcarpentry
  venue: University of British Columbia
- address: Building 60, Monash University Clayton campus
  country: Australia
  enddate: 2013-10-03
  humandate: Oct 1-3, 2013
  humantime: 9:00 - 17:00
  instructor: [Ben Morris, Philipp Bayer]
  latlng: -37.9083,145.138
  layout: bootcamp
  registration: restricted
  slug: 2013-10-01-acpfgM
  startdate: 2013-10-01
  url: http://swcarpentry.github.io/2013-10-01-acpfgM/
  user: swcarpentry
  venue: 'Australian Bioinformatics Network: Melbourne'
- address: The Westin Bonaventure Hotel, Los Angeles
  country: United-States
  enddate: 2013-10-29
  humandate: Oct 29, 2013
  humantime: 9:00 am - 4:30 pm
  instructor: [April Wright]
  latlng: 34.052778,-118.255833
  layout: bootcamp
  registration: restricted
  slug: 2013-10-29-vertpaleo
  startdate: 2013-10-29
  url: http://swcarpentry.github.io/2013-10-29-vertpaleo/
  user: swcarpentry
  venue: Society of Vertebrate Paleontology Annual Meeting
- {address: 'Aquarium Conference Room, NOAA National Marine Fisheries Service, Woods
    Hole', contact: james.maning@noaa.gov, country: United-States, enddate: 2013-11-15,
  humandate: 'Nov 14-15, 2013', humantime: '9:00 - 16:30', latlng: '41.526667,-70.663056',
  layout: bootcamp, registration: open, slug: 2013-11-14-whoi, startdate: 2013-11-14,
  url: 'http://swcarpentry.github.io/2013-11-14-whoi/', user: swcarpentry, venue: Woods
    Hole Scientific Community}
- address: Phillips Auditorium at the Center for Astrophysics, 60 Garden Street
  contact: harvard@lists.software-carpentry.org
  country: United-States
  enddate: 2013-08-24
  humandate: August 23-24, 2013
  humantime: 9:00 am - 4:30 pm
  instructor: [Erik Bray, Jessica McKellar, R. David Murray, Mike Selik]
  latlng: 42.381705,-71.127904
  layout: bootcamp
  registration: restricted
  root: .
  slug: 2013-08-23-harvard
  startdate: 2013-08-23
  url: http://swcarpentry.github.io/2013-08-23-harvard/
  user: swcarpentry
  venue: Harvard University
- address: 3700 San Martin Drive, Baltimore, MD 21218
  contact: gvwilson@software-carpentry.org
  country: United-States
  enddate: 2013-09-17
  humandate: Sept 16-17, 2013
  humantime: 9:00 am - 4:30 pm
  instructor: [Azalee Bostroem, Erik Bray, Justin Ely, Greg Wilson]
  latlng: 39.33272,-76.62327
  layout: bootcamp
  registration: restricted
  root: .
  slug: 2013-09-16-stsci
  startdate: 2013-09-16
  url: http://swcarpentry.github.io/2013-09-16-stsci/
  user: swcarpentry
  venue: Space Telescope Science Institute
- address: BSLC 115, 924 East 57th Street
  contact: jdblischak@uchicago.edu
  country: United-States
  enddate: 2013-09-20
  humandate: Sept 19-20, 2013
  humantime: 8:30 am - 4:30 pm
  instructor: [John Blischak, Will Trimble, Emily Davenport]
  latlng: 41.79149, -87.60270
  layout: bootcamp
  registration: restricted
  root: .
  slug: 2013-09-19-chicago
  startdate: 2013-09-19
  url: http://jdblischak.github.io/2013-09-19-chicago/
  user: jdblischak
  venue: University of Chicago
- address: Davidson Continuing Education Conference Center, 3415 S Figueroa St., Los
    Angeles
  contact: admin@software-carpentry.org
  country: United-States
  enddate: 2013-09-17
  humandate: Sept 16-17, 2013
  humantime: 8:30 am - 4:30 pm
  instructor: [Ariel Rokem, Matt Terry, John Mehringer, Karan Vahi]
  latlng: 34.020493, -118.281233
  layout: bootcamp
  registration: restricted
  root: .
  slug: 2013-09-16-ISI
  startdate: 2013-09-16
  url: http://arokem.github.io/2013-09-16-ISI/
  user: arokem
  venue: University of Southern California
- address: Centre Fran&ccedilois Jacob, room 28_01_01C
  contact: jdblischak@uchicago.edu
  country: France
  enddate: 2013-10-04
  humandate: Oct 03-04, 2013
  humantime: 13:30 - 18:30, 9:00 - 17:30
  instructor: [John Blischak, Diego Barneche]
  latlng: 48.84042, 2.31068
  layout: bootcamp
  registration: restricted
  root: .
  slug: 2013-10-03-pasteur
  startdate: 2013-10-03
  url: http://jdblischak.github.io/2013-10-03-pasteur/
  user: jdblischak
  venue: Institut Pasteur
- address: Canberra
  contact: karthik.ram@berkeley.edu
  country: Australia
  enddate: 2013-10-10
  humandate: October 9-10, 2013
  humantime: 8:30 am - 5 pm
  instructor: [Karthik Ram]
  latlng: -35.27770,149.11853
  layout: bootcamp
  registration: open
  root: .
  slug: 2013-10-09-canberra
  startdate: 2013-10-09
  url: http://swcarpentry.github.io/2013-10-09-canberra/
  user: swcarpentry
  venue: CSIRO/ANU
- address: MRMB 1152, 900 S. Ashland, Chicago, IL 60607
  contact: microbe@uic.edu
  country: United-States
  enddate: 2013-10-18
  humandate: Oct 17-18, 2013
  humantime: 8:30 am - 4:30 pm
  instructor: [Rachel Poretsky, Neal Davis, Will Trimble, John Blischak]
  latlng: 41.870206, -87.666934
  layout: bootcamp
  registration: restricted
  root: .
  slug: 2013-10-17-uic
  startdate: 2013-10-17
  url: http://jdblischak.github.io/2013-10-17-uic/
  user: jdblischak
  venue: University of Illinois at Chicago
- address: 11th Floor, Greenwich Digital Enterprise Centre, 6 Mitre Passage, London
    SE10 0ER
  contact: admin-uk@software-carpentry.org
  country: United-Kingdom
  enddate: 2013-10-25
  eventbrite: 7995483707
  humandate: Oct 24-25, 2013
  humantime: 9:00 am - 4:30 pm
  instructor: [Greg Wilson, James Hetherington, Karthik Ram]
  latlng: 51.50066,0.00663
  layout: bootcamp
  registration: open
  root: .
  slug: 2013-10-24-greenwich
  startdate: 2013-10-24
  url: http://swcarpentry.github.io/2013-10-24-greenwich/
  user: swcarpentry
  venue: Greenwich, England
- address: NYC
  contact: ely@stsci.edu
  country: United-States
  enddate: 2013-10-26
  humandate: October 25-26, 2013
  humantime: 9:00 am - 4:30 pm
  instructor: [Justin Ely, David Koop, Ivan Gonzalez, David Warde-Farley]
  latlng: 40.8080777,-73.9635678
  layout: bootcamp
  registration: restricted
  root: .
  slug: 2013-10-25-columbia
  startdate: 2013-10-25
  url: http://justincely.github.io/2013-10-25-columbia/
  user: justincely
  venue: Columbia University and CUSP
- address: Reed Hall, Streatham Drive, Exeter, Devon EX4 4QR
  contact: host-exeter@software-carpentry.org
  country: United-Kingdom
  enddate: 2013-11-15
  humandate: November 14-15, 2013
  humantime: 9:00 am - 5.00 pm
  instructor: [David Martin, Christopher Woods]
  latlng: 50.735788,-3.535033
  layout: bootcamp
  registration: restricted
  root: .
  slug: 2013-11-14-exeter
  startdate: 2013-11-14
  url: http://chryswoods.github.io/2013-11-14-exeter/
  user: chryswoods
  venue: Exeter University
- address: Old Arts, Second Floor, Collaborative Learning Space 2 (room 257)
  contact: karenl@unimelb.edu.au
  country: Australia
  enddate: 2013-12-04
  humandate: Nov 25 & 27/Dec 2 & 4, 2013
  humantime: 3:00 pm - 6:00 pm
  instructor: [Damien Irving]
  latlng: -37.7963,144.9614
  layout: bootcamp
  registration: restricted
  root: .
  slug: 2013-11-25-unimelb
  startdate: 2013-11-25
  url: http://damienirving.github.io/2013-11-25-unimelb/
  user: damienirving
  venue: University of Melbourne
- address: Room 3217, James Clark Maxwell Building, Kings Buildings, Mayfield Road,
    Edinburgh, EH9 3JZ
  contact: host-edinburgh@software-carpentry.org
  country: United-Kingdom
  enddate: 2013-12-04
  humandate: Dec 3-4, 2013
  humantime: 9:00 am - 5:00 pm
  instructor: [Mike Jackson, Mario Antonioletti]
  latlng: 55.921628,-3.174155
  layout: bootcamp
  registration: open
  root: .
  slug: 2013-12-03-edinburgh
  startdate: 2013-12-03
  url: http://mikej888.github.io/2013-12-03-edinburgh/
  user: mikej888
  venue: The University of Edinburgh
- address: SESYNC, Annapolis, MD
  contact: mshelley@sesync.org
  country: United-States
  enddate: 2013-12-06
  humandate: Dec 3-6, 2013
  humantime: 9:00 am - 4:30 pm
  instructor: [Will Trimble, ' Amanda Whitlock', Bernhard Konrad, Aron Ahmadia, R.
      David Murray]
  latlng: 38.976734, -76.503296
  layout: bootcamp
  registration: restricted
  root: .
  slug: 2013-12-03-sesync
  startdate: 2013-12-03
  url: http://wltrimbl.github.io/2013-12-03-sesync/
  user: wltrimbl
  venue: National Socio-Environmental Synthesis Center (SESYNC)
- address: Room 320, Kelvin Building
  contact: admin-uk@software-carpentry.org
  country: United-Kingdom
  enddate: 2013-12-13
  humandate: Dec 12-13, 2013
  humantime: 9:00 am - 4:30 pm
  instructor: [Ben Morris, James Morrison]
  latlng: 55.87185,-4.29155
  layout: bootcamp
  registration: restricted
  root: .
  slug: 2013-12-12-glasgow
  startdate: 2013-12-12
  url: http://bendmorris.github.io/2013-12-12-glasgow/
  user: bendmorris
  venue: Glasgow University
- address: College of Life Sciences, University of Dundee, Dundee DD1 5EH
  contact: d.m.a.martin@dundee.ac.uk
  country: United-Kingdom
  enddate: 2013-12-16
  humandate: Dec 16-17, 2013
  humantime: 9:00 am - 5.00 pm
  instructor: [David Martin, Martin Jones]
  latlng: 50.735788,-3.535033
  layout: bootcamp
  registration: restricted
  root: .
  slug: 2013-12-16-dundee
  startdate: 2013-12-16
  url: http://gvwilson.github.io/2013-12-16-dundee/
  user: gvwilson
  venue: Dundee University
- address: Bailey Hall 214-216, 10 Bailey Drive, Fredericton, New Brunswick
  contact: jgustavsen@eos.ubc.ca
  country: Canada
  enddate: 2014-01-07
  humandate: Jan 6-7, 2014
  humantime: 9:00 am - 4:30 pm
  instructor: [Julia Gustavsen, Ross Dickson]
  latlng: 45.947214,-66.640325
  layout: bootcamp
  registration: restricted
  root: .
  slug: 2014-01-06-unb
  startdate: 2014-01-06
  url: http://jooolia.github.io/2014-01-06-unb/
  user: jooolia
  venue: University of New Brunswick
- address: Wilberforce Road, Cambridge
  contact: r.cam.bootcamp@gmail.com
  country: United-Kingdom
  enddate: 2014-01-08
  humandate: Jan 7-8, 2014
  humantime: 9:00 am - 4:30 pm
  instructor: [Stephen Eglen, Laurent Gatto, Aleksandra Pawlik]
  latlng: 52.209868,0.102439
  layout: bootcamp
  registration: restricted
  root: .
  slug: 2014-01-07-cam
  startdate: 2014-01-07
  url: http://sje30.github.io/2014-01-07-cam/
  user: sje30
  venue: Centre for Mathematical Sciences, University of Cambridge
- address: ISU Memorial Union (1/8/14 - Oak and South Ballroom, 1/9/14 - Oak and Sun
    Room)
  contact: howead@msu.edu
  country: United-States
  enddate: 2014-01-09
  humandate: Jan 8-9, 2014
  humantime: 9:00 am - 4:30 pm
  instructor: [Jonah Duckles, Molly Gibson, Adina Howe, William Trimble]
  latlng: TBD
  layout: bootcamp
  registration: restricted
  root: .
  slug: 2014-01-08-iastate
  startdate: 2014-01-08
  url: http://adina.github.io/2014-01-08-iastate/
  user: adina
  venue: Iowa State University
- address: Mozilla, 366 Adelaide Street West, Toronto
  contact: gvwilson@software-carpentry.org
  country: Canada
  enddate: 2014-01-14
  eventbrite: 9571796501
  humandate: Jan 13-14, 2014
  humantime: 9:00 am - 4:30 pm
  instructor: [Andromeda Yelton, Greg Wilson, Victor Ng, Chris Gray]
  latlng: 43.64711,-79.39423
  layout: bootcamp
  registration: open
  root: .
  slug: 2014-01-13-toronto
  startdate: 2014-01-13
  url: http://gvwilson.github.io/2014-01-13-toronto/
  user: gvwilson
  venue: Library Sciences in Toronto
- address: Hazard Conference Room, 215 South Ferry Road, Narragansett, RI 02882
  contact: igonzalez@mailaps.org
  country: United-States
  enddate: 2014-01-14
  humandate: Jan 13-14, 2014
  humantime: 8:00 am - 4:00 pm
  instructor: [Patrick Fuller, Ivan Gonzalez]
  latlng: 41.492635,-71.422294
  layout: bootcamp
  registration: restricted
  root: .
  slug: 2014-01-13-uri
  startdate: 2014-01-13
  url: http://iglpdc.github.io/2014-01-13-uri/
  user: iglpdc
  venue: Coastal Institute, University of Rhode Island
- address: Researcher's Link, Wisconsin Institutes for Discovery
  contact: admin@software-carpentry.org
  country: United-States
  enddate: 2014-01-14
  eventbrite: 9770502837
  humandate: Jan 13-14, 2014
  humantime: 8:30 am - 4:30 pm
  instructor: [Paul Wilson, Matt Gidden, Lauren Michael, Cliff Davis, Danielle Nielsen,
    Aronne Merrelli]
  latlng: 43.07718,-89.40399
  layout: bootcamp
  registration: restricted
  root: .
  slug: 2014-01-13-wisc
  startdate: 2014-01-13
  url: http://uw-madison-aci.github.io/2014-01-13-wisc/
  user: uw-madison-aci
  venue: University of Wisconsin-Madison
- address: Room IT407, Information Technology Building, University of Manchester,
    Oxford Road, M13 9PL
  contact: admin-uk@software-carpentry.org
  country: United-Kingdom
  enddate: 2014-01-15
  humandate: Jan 14-15, 2014
  humantime: 9:00 am - 5:00 pm
  instructor: [Michael Croucher, Jos Martin, Shoaib Sufi, Aleksandra Pawlik]
  latlng: 53.467972,-2.233154
  layout: bootcamp
  registration: restricted
  root: .
  slug: 2014-01-14-manchester
  startdate: 2014-01-14
  url: http://apawlik.github.io/2014-01-14-manchester/
  user: apawlik
  venue: University of Manchester
- address: Moffitt 103
  contact: jkitzes@berkeley.edu
  country: United-States
  enddate: 2014-01-19
  humandate: Jan 18-19, 2014
  humantime: 9:00 am - 5:00 pm
  instructor: [Justin Kitzes, Chris Holdgraf, Mark Wilber]
  latlng: 34.413963,-119.848947
  layout: bootcamp
  registration: restricted
  root: .
  slug: 2014-01-18-ucb
  startdate: 2014-01-18
  url: http://swcarpentry.github.io/2014-01-18-ucb/
  user: swcarpentry
  venue: University of California Berkeley
- address: '405 Avenue Ogilvy #101, Montreal'
  contact: gvwilson@software-carpentry.org
  country: Canada
  enddate: 2014-01-21
  eventbrite: 9698535581
  humandate: Jan 20-21, 2014
  humantime: 9:00 am - 4:30 pm
  instructor: [Greg Wilson, Julia Evans]
  latlng: 45.530677,-73.624497
  layout: bootcamp
  registration: open
  root: .
  slug: 2014-01-20-montreal
  startdate: 2014-01-20
  url: http://gvwilson.github.io/2014-01-20-montreal/
  user: gvwilson
  venue: CRIM (Montreal)
- address: Phillips Auditorium at the Center for Astrophysics, 60 Garden Street
  contact: harvard@lists.software-carpentry.org
  country: United-States
  enddate: 2013-08-24
  humandate: August 23-24, 2013
  humantime: 9:00 am - 4:30 pm
  instructor: [Erik Bray, Jessica McKellar, R. David Murray, Mike Selik]
  latlng: 42.381705,-71.127904
  layout: bootcamp
  registration: restricted
  root: .
  slug: 2013-08-23-harvard
  startdate: 2013-08-23
  url: http://swcarpentry.github.io/2013-08-23-harvard/
  user: swcarpentry
  venue: Harvard University
- address: 3700 San Martin Drive, Baltimore, MD 21218
  contact: gvwilson@software-carpentry.org
  country: United-States
  enddate: 2013-09-17
  humandate: Sept 16-17, 2013
  humantime: 9:00 am - 4:30 pm
  instructor: [Azalee Bostroem, Erik Bray, Justin Ely, Greg Wilson]
  latlng: 39.33272,-76.62327
  layout: bootcamp
  registration: restricted
  root: .
  slug: 2013-09-16-stsci
  startdate: 2013-09-16
  url: http://swcarpentry.github.io/2013-09-16-stsci/
  user: swcarpentry
  venue: Space Telescope Science Institute
- address: BSLC 115, 924 East 57th Street
  contact: jdblischak@uchicago.edu
  country: United-States
  enddate: 2013-09-20
  humandate: Sept 19-20, 2013
  humantime: 8:30 am - 4:30 pm
  instructor: [John Blischak, Will Trimble, Emily Davenport]
  latlng: 41.79149, -87.60270
  layout: bootcamp
  registration: restricted
  root: .
  slug: 2013-09-19-chicago
  startdate: 2013-09-19
  url: http://jdblischak.github.io/2013-09-19-chicago/
  user: jdblischak
  venue: University of Chicago
- address: Davidson Continuing Education Conference Center, 3415 S Figueroa St., Los
    Angeles
  contact: admin@software-carpentry.org
  country: United-States
  enddate: 2013-09-17
  humandate: Sept 16-17, 2013
  humantime: 8:30 am - 4:30 pm
  instructor: [Ariel Rokem, Matt Terry, John Mehringer, Karan Vahi]
  latlng: 34.020493, -118.281233
  layout: bootcamp
  registration: restricted
  root: .
  slug: 2013-09-16-ISI
  startdate: 2013-09-16
  url: http://arokem.github.io/2013-09-16-ISI/
  user: arokem
  venue: University of Southern California
- address: Centre Fran&ccedilois Jacob, room 28_01_01C
  contact: jdblischak@uchicago.edu
  country: France
  enddate: 2013-10-04
  humandate: Oct 03-04, 2013
  humantime: 13:30 - 18:30, 9:00 - 17:30
  instructor: [John Blischak, Diego Barneche]
  latlng: 48.84042, 2.31068
  layout: bootcamp
  registration: restricted
  root: .
  slug: 2013-10-03-pasteur
  startdate: 2013-10-03
  url: http://jdblischak.github.io/2013-10-03-pasteur/
  user: jdblischak
  venue: Institut Pasteur
- address: Canberra
  contact: karthik.ram@berkeley.edu
  country: Australia
  enddate: 2013-10-10
  humandate: October 9-10, 2013
  humantime: 8:30 am - 5 pm
  instructor: [Karthik Ram]
  latlng: -35.27770,149.11853
  layout: bootcamp
  registration: open
  root: .
  slug: 2013-10-09-canberra
  startdate: 2013-10-09
  url: http://swcarpentry.github.io/2013-10-09-canberra/
  user: swcarpentry
  venue: CSIRO/ANU
- address: MRMB 1152, 900 S. Ashland, Chicago, IL 60607
  contact: microbe@uic.edu
  country: United-States
  enddate: 2013-10-18
  humandate: Oct 17-18, 2013
  humantime: 8:30 am - 4:30 pm
  instructor: [Rachel Poretsky, Neal Davis, Will Trimble, John Blischak]
  latlng: 41.870206, -87.666934
  layout: bootcamp
  registration: restricted
  root: .
  slug: 2013-10-17-uic
  startdate: 2013-10-17
  url: http://jdblischak.github.io/2013-10-17-uic/
  user: jdblischak
  venue: University of Illinois at Chicago
- address: 11th Floor, Greenwich Digital Enterprise Centre, 6 Mitre Passage, London
    SE10 0ER
  contact: admin-uk@software-carpentry.org
  country: United-Kingdom
  enddate: 2013-10-25
  eventbrite: 7995483707
  humandate: Oct 24-25, 2013
  humantime: 9:00 am - 4:30 pm
  instructor: [Greg Wilson, James Hetherington, Karthik Ram]
  latlng: 51.50066,0.00663
  layout: bootcamp
  registration: open
  root: .
  slug: 2013-10-24-greenwich
  startdate: 2013-10-24
  url: http://swcarpentry.github.io/2013-10-24-greenwich/
  user: swcarpentry
  venue: Greenwich, England
- address: NYC
  contact: ely@stsci.edu
  country: United-States
  enddate: 2013-10-26
  humandate: October 25-26, 2013
  humantime: 9:00 am - 4:30 pm
  instructor: [Justin Ely, David Koop, Ivan Gonzalez, David Warde-Farley]
  latlng: 40.8080777,-73.9635678
  layout: bootcamp
  registration: restricted
  root: .
  slug: 2013-10-25-columbia
  startdate: 2013-10-25
  url: http://justincely.github.io/2013-10-25-columbia/
  user: justincely
  venue: Columbia University and CUSP
- address: Reed Hall, Streatham Drive, Exeter, Devon EX4 4QR
  contact: host-exeter@software-carpentry.org
  country: United-Kingdom
  enddate: 2013-11-15
  humandate: November 14-15, 2013
  humantime: 9:00 am - 5.00 pm
  instructor: [David Martin, Christopher Woods]
  latlng: 50.735788,-3.535033
  layout: bootcamp
  registration: restricted
  root: .
  slug: 2013-11-14-exeter
  startdate: 2013-11-14
  url: http://chryswoods.github.io/2013-11-14-exeter/
  user: chryswoods
  venue: Exeter University
- address: Old Arts, Second Floor, Collaborative Learning Space 2 (room 257)
  contact: karenl@unimelb.edu.au
  country: Australia
  enddate: 2013-12-04
  humandate: Nov 25 & 27/Dec 2 & 4, 2013
  humantime: 3:00 pm - 6:00 pm
  instructor: [Damien Irving]
  latlng: -37.7963,144.9614
  layout: bootcamp
  registration: restricted
  root: .
  slug: 2013-11-25-unimelb
  startdate: 2013-11-25
  url: http://damienirving.github.io/2013-11-25-unimelb/
  user: damienirving
  venue: University of Melbourne
- address: Room 3217, James Clark Maxwell Building, Kings Buildings, Mayfield Road,
    Edinburgh, EH9 3JZ
  contact: host-edinburgh@software-carpentry.org
  country: United-Kingdom
  enddate: 2013-12-04
  humandate: Dec 3-4, 2013
  humantime: 9:00 am - 5:00 pm
  instructor: [Mike Jackson, Mario Antonioletti]
  latlng: 55.921628,-3.174155
  layout: bootcamp
  registration: open
  root: .
  slug: 2013-12-03-edinburgh
  startdate: 2013-12-03
  url: http://mikej888.github.io/2013-12-03-edinburgh/
  user: mikej888
  venue: The University of Edinburgh
- address: SESYNC, Annapolis, MD
  contact: mshelley@sesync.org
  country: United-States
  enddate: 2013-12-06
  humandate: Dec 3-6, 2013
  humantime: 9:00 am - 4:30 pm
  instructor: [Will Trimble, ' Amanda Whitlock', Bernhard Konrad, Aron Ahmadia, R.
      David Murray]
  latlng: 38.976734, -76.503296
  layout: bootcamp
  registration: restricted
  root: .
  slug: 2013-12-03-sesync
  startdate: 2013-12-03
  url: http://wltrimbl.github.io/2013-12-03-sesync/
  user: wltrimbl
  venue: National Socio-Environmental Synthesis Center (SESYNC)
- address: Room 320, Kelvin Building
  contact: admin-uk@software-carpentry.org
  country: United-Kingdom
  enddate: 2013-12-13
  humandate: Dec 12-13, 2013
  humantime: 9:00 am - 4:30 pm
  instructor: [Ben Morris, James Morrison]
  latlng: 55.87185,-4.29155
  layout: bootcamp
  registration: restricted
  root: .
  slug: 2013-12-12-glasgow
  startdate: 2013-12-12
  url: http://bendmorris.github.io/2013-12-12-glasgow/
  user: bendmorris
  venue: Glasgow University
- address: College of Life Sciences, University of Dundee, Dundee DD1 5EH
  contact: d.m.a.martin@dundee.ac.uk
  country: United-Kingdom
  enddate: 2013-12-16
  humandate: December 16-17, 2013
  humantime: 9:00 am - 5.00 pm
  instructor: [David Martin, Martin Jones]
  latlng: 50.735788,-3.535033
  layout: bootcamp
  registration: restricted
  root: .
  slug: 2013-12-16-dundee
  startdate: 2013-12-16
  url: http://davidmam.github.io/2013-12-16-dundee/
  user: davidmam
  venue: Dundee University
- address: Bailey Hall 214-216, 10 Bailey Drive, Fredericton, New Brunswick
  contact: jgustavsen@eos.ubc.ca
  country: Canada
  enddate: 2014-01-07
  humandate: Jan 6-7, 2014
  humantime: 9:00 am - 4:30 pm
  instructor: [Julia Gustavsen, Ross Dickson]
  latlng: 45.947214,-66.640325
  layout: bootcamp
  registration: restricted
  root: .
  slug: 2014-01-06-unb
  startdate: 2014-01-06
  url: http://jooolia.github.io/2014-01-06-unb/
  user: jooolia
  venue: University of New Brunswick
- address: Wilberforce Road, Cambridge
  contact: r.cam.bootcamp@gmail.com
  country: United-Kingdom
  enddate: 2014-01-08
  humandate: Jan 7-8, 2014
  humantime: 9:00 am - 4:30 pm
  instructor: [Stephen Eglen, Laurent Gatto, Aleksandra Pawlik]
  latlng: 52.209868,0.102439
  layout: bootcamp
  registration: restricted
  root: .
  slug: 2014-01-07-cam
  startdate: 2014-01-07
  url: http://sje30.github.io/2014-01-07-cam/
  user: sje30
  venue: Centre for Mathematical Sciences, University of Cambridge
- address: ISU Memorial Union (1/8/14 - Oak and South Ballroom, 1/9/14 - Oak and Sun
    Room)
  contact: howead@msu.edu
  country: United-States
  enddate: 2014-01-09
  humandate: Jan 8-9, 2014
  humantime: 9:00 am - 4:30 pm
  instructor: [Jonah Duckles, Molly Gibson, Adina Howe, William Trimble]
  latlng: TBD
  layout: bootcamp
  registration: restricted
  root: .
  slug: 2014-01-08-iastate
  startdate: 2014-01-08
  url: http://adina.github.io/2014-01-08-iastate/
  user: adina
  venue: Iowa State University
- address: 366 Adelaide Street West, Toronto
  contact: gvwilson@software-carpentry.org
  country: Canada
  enddate: 2014-01-14
  humandate: Jan 13-14, 2014
  humantime: 8:45 am - 4:30 pm
  instructor: [Andromeda Yelton, Chris Gray, Victor Ng, Greg Wilson]
  latlng: 43.64711,-79.39423
  layout: bootcamp
  registration: open
  root: .
  slug: 2014-01-13-toronto
  startdate: 2014-01-13
  url: http://swcarpentry.github.io/2014-01-13-toronto/
  user: swcarpentry
  venue: Mozilla Toronto
- address: Hazard Conference Room, 215 South Ferry Road, Narragansett, RI 02882
  contact: igonzalez@mailaps.org
  country: United-States
  enddate: 2014-01-14
  humandate: Jan 13-14, 2014
  humantime: 8:00 am - 4:00 pm
  instructor: [Patrick Fuller, Ivan Gonzalez]
  latlng: 41.492635,-71.422294
  layout: bootcamp
  registration: restricted
  root: .
  slug: 2014-01-13-uri
  startdate: 2014-01-13
  url: http://iglpdc.github.io/2014-01-13-uri/
  user: iglpdc
  venue: Coastal Institute, University of Rhode Island
- address: Researcher's Link, Wisconsin Institutes for Discovery
  contact: admin@software-carpentry.org
  country: United-States
  enddate: 2014-01-14
  eventbrite: 9770502837
  humandate: Jan 13-14, 2014
  humantime: 8:30 am - 4:30 pm
  instructor: [Paul Wilson, Matt Gidden, Lauren Michael, Cliff Davis, Danielle Nielsen,
    Aronne Merrelli]
  latlng: 43.07718,-89.40399
  layout: bootcamp
  registration: restricted
  root: .
  slug: 2014-01-13-wisc
  startdate: 2014-01-13
  url: http://uw-madison-aci.github.io/2014-01-13-wisc/
  user: uw-madison-aci
  venue: University of Wisconsin-Madison
- address: Room IT407, Information Technology Building, University of Manchester,
    Oxford Road, M13 9PL
  contact: admin-uk@software-carpentry.org
  country: United-Kingdom
  enddate: 2014-01-15
  humandate: Jan 14-15, 2014
  humantime: 9:00 am - 5:00 pm
  instructor: [Michael Croucher, Jos Martin, Shoaib Sufi, Aleksandra Pawlik]
  latlng: 53.467972,-2.233154
  layout: bootcamp
  registration: restricted
  root: .
  slug: 2014-01-14-manchester
  startdate: 2014-01-14
  url: http://apawlik.github.io/2014-01-14-manchester/
  user: apawlik
  venue: University of Manchester
- address: Moffitt 103
  contact: jkitzes@berkeley.edu
  country: United-States
  enddate: 2014-01-19
  humandate: Jan 18-19, 2014
  humantime: 9:00 am - 5:00 pm
  instructor: [Justin Kitzes, Chris Holdgraf, Mark Wilber]
  latlng: 34.413963,-119.848947
  layout: bootcamp
  registration: restricted
  root: .
  slug: 2014-01-18-ucb
  startdate: 2014-01-18
  url: http://swcarpentry.github.io/2014-01-18-ucb/
  user: swcarpentry
  venue: University of California Berkeley
- address: '405 Avenue Ogilvy #101, Montreal'
  contact: gvwilson@software-carpentry.org
  country: Canada
  enddate: 2014-01-21
  eventbrite: 9698535581
  humandate: Jan 20-21, 2014
  humantime: 9:00 am - 4:30 pm
  instructor: [Greg Wilson, Julia Evans]
  latlng: 45.530677,-73.624497
  layout: bootcamp
  registration: open
  root: .
  slug: 2014-01-20-montreal
  startdate: 2014-01-20
  url: http://gvwilson.github.io/2014-01-20-montreal/
  user: gvwilson
  venue: CRIM (Montreal)
